{"generated":"2026-05-16T12:49:03Z","source":"https://map.meshcore.io/api/v1/nodes","region":"NL bbox lat 50.6-53.7, lon 3.2-7.4","filter":"type=Repeater","count":3744,"nodes":{"0101010101f7256f39d67f32ab249553903c1e390ec88ca4762ff3bdf73b0b89":{"name":"NL-RYS-SION-Testunit","lat":52.0233,"lon":4.32354,"last_advert":"2024-05-15T08:54:48.000Z","freq":869.618,"sf":7,"bw":62.5,"cr":5},"011ea4b1c4b86f83c7b3feb3fa9e9eea461f1925260174265ec0b9f4e91c1619":{"name":"NL-AMS-AK02","lat":52.3376,"lon":4.92151,"last_advert":"2026-05-13T15:11:20.000Z","freq":869.618,"sf":8,"bw":62.5,"cr":8},"011f8d660bc7e4e4f3bfac26b1cde23d2463166e931419adce440de0fe48ed96":{"name":"NL-GROESBEEK-BW-TN","lat":51.7607,"lon":5.94463,"last_advert":"2026-04-23T13:08:50.000Z","freq":869.618,"sf":8,"bw":62.5,"cr":8},"0131873cad0e46ed13c790875a03ea97a31abb2258448f85a0999117c544b166":{"name":"Thor","lat":52.3367,"lon":4.87362,"last_advert":"2024-05-17T08:55:30.000Z","freq":869.618,"sf":8,"bw":62.5,"cr":8},"0133daa004849412e38d40bff379713f948e9add480e5f8da00ac368f349dbd8":{"name":"NL-BRR-Centrum-RPT-001","lat":51.8558,"lon":4.54246,"last_advert":"2026-05-10T18:25:53.000Z","freq":869.618,"sf":7,"bw":62.5,"cr":5},"01589eb55e346afeb047e7a0fc3e63c40e266bec30a7aa8b5fe64f698c85760d":{"name":"NL-5854 Bergen","lat":51.5997,"lon":6.0326,"last_advert":"2026-05-16T10:27:17.000Z","freq":869.618,"sf":8,"bw":62.5,"cr":5},"01610ebada56b005d83998ca3d578ddb3e8aa6ababc7a4720426c56a19dcfeb8":{"name":"Heltec Repeater","lat":51.0788,"lon":4.42049,"last_advert":"2024-07-02T20:52:34.000Z","freq":869.617,"sf":8,"bw":62.5,"cr":8},"016ec5e35d3369b82c10a874807efbf68d6a5e99415651b6b8791c0116b6e85a":{"name":"NL-AER-\u2694\ufe0f\ud83c\udf38\u2694\ufe0f","lat":52.3967,"lon":5.30103,"last_advert":"2026-05-14T11:48:38.000Z","freq":869.618,"sf":7,"bw":62.5,"cr":5},"0176873c70b86e9ec6261b66dbb7615b4b9a6a1e78dd618b423cad689423e02e":{"name":"Repeater Assen NL","lat":52.999,"lon":6.5478,"last_advert":"2026-05-07T16:20:16.000Z","freq":869.618,"sf":8,"bw":62.5,"cr":8},"0176cc9f755654f1bda1b3c72dc6be8c12738164e8961225e928a19e6b1bee98":{"name":"\ud83c\udde7\ud83c\uddeaTMGEEL01","lat":51.1622,"lon":4.96152,"last_advert":"2026-05-07T09:24:41.000Z","freq":869.618,"sf":8,"bw":62.5,"cr":8},"018d6e965897bd1345ceb382113bee1f4600f43d02b5ef474fac50861bd46ffa":{"name":"NL_HGZ_RA_Rmax","lat":53.1562,"lon":6.74916,"last_advert":"2024-06-17T08:52:36.000Z","freq":869.618,"sf":8,"bw":62.5,"cr":8},"018f729baeb91886210085f3c41b8654fda5bd9c4718f591b55456a69f70d1f9":{"name":"NL-8322 repeater","lat":52.6604,"lon":5.63132,"last_advert":"2026-01-18T19:37:49.000Z","freq":869.618,"sf":8,"bw":62.5,"cr":8},"01979b64e51309d712d2622fd8995c5a922bd843cf8aa549d7922487ac9f659c":{"name":"StedeBroec-Bridge-SF7/8","lat":52.6918,"lon":5.23377,"last_advert":"2026-05-13T07:45:29.000Z","freq":869.618,"sf":7,"bw":62.5,"cr":5},"01a90bae4b99c3c55a8bfd5b3d90c996ad33a693103536e382144c7d7c880998":{"name":"Repeater NTN","lat":52.5004,"lon":4.81952,"last_advert":"2026-05-15T06:27:23.000Z","freq":869.618,"sf":8,"bw":62.5,"cr":8},"01b45769976925e1a2988abffb743bf896a5459d85050aaffedf6bfe38101e6c":{"name":"Trinity Test Site","lat":52.7072,"lon":6.21215,"last_advert":"2026-04-28T23:20:41.000Z","freq":869.618,"sf":8,"bw":62.5,"cr":8},"01bd282761f110d977dbb2d2500e3eb90d947ae1ad06a639bde161d034a2aff3":{"name":"DE-WAT-Zilleweg","lat":51.444,"lon":7.14047,"last_advert":"2024-05-16T02:52:32.000Z","freq":869.618,"sf":8,"bw":62.5,"cr":5},"01e5c179b85ac7e6e6261dc77b56b73fe14fe6164b0ae3d6dd22cb257c60a79a":{"name":"NL-OBL-RP2  \ud83c\udf34\ud83e\udd9c","lat":51.8276,"lon":4.41863,"last_advert":"2024-05-16T02:59:48.000Z","freq":869.618,"sf":8,"bw":62.5,"cr":8},"01fa326b475800a31105abcb9e4cac000b3e5d9e2b5ba0739981ce8d5f3a6754":{"name":"BE-GNK-C Mine-EBP","lat":50.9822,"lon":5.49006,"last_advert":"2026-05-07T13:15:47.000Z","freq":869.618,"sf":8,"bw":62.5,"cr":8},"0206ba9f96ebae8fc5756d88e4ffea3aa4412c54b5b6b3d460b3abae16f2daea":{"name":"NL-sGRAVENZANDE","lat":52.0083,"lon":4.16741,"last_advert":"2024-07-23T13:55:19.000Z","freq":869.618,"sf":8,"bw":62.5,"cr":8},"021c647441ba61f5c80f2aabca545c937f340f68ea6ead1cb9f48c7dcf6798d4":{"name":"NL-BRGH-0FR","lat":51.8693,"lon":5.65946,"last_advert":"2024-05-21T08:52:32.000Z","freq":869.618,"sf":8,"bw":62.5,"cr":5},"021ee617cccd73a57dceed95c044697c1e4806972073f0886fb10c449bc13e0d":{"name":"NL-VRS-RPT","lat":52.17,"lon":6.14182,"last_advert":"2026-05-07T15:12:58.000Z","freq":869.618,"sf":8,"bw":62.5,"cr":8},"022d11d8f211b568d2d224276183102b45bd510f65be927415f7141d7e5a5371":{"name":"Leidschendam-NW RP","lat":52.0993,"lon":4.39077,"last_advert":"2026-05-16T00:59:53.000Z","freq":869.618,"sf":8,"bw":62.5,"cr":8},"024908b85021d19c6d7060b27f6fc877d4d7099a9b9ec693b8a7ed78ce6566b5":{"name":"DE-NW-ROTT_Observer","lat":50.6832,"lon":6.2054,"last_advert":"2026-04-26T01:58:14.000Z","freq":869.618,"sf":8,"bw":62.5,"cr":8},"027692fec3d04ca4d08ca505ba87de8ee16d7c360629f4a631e222c75adffed2":{"name":"\ud83c\udde7\ud83c\uddeaTMGEEL02","lat":51.1614,"lon":4.96228,"last_advert":"2026-04-25T09:25:07.000Z","freq":869.618,"sf":8,"bw":62.5,"cr":8},"029117cbdd17299f8c9483457bd3a397f69dd15a493c46cda0f3ae78d243687b":{"name":"NL-dor-DeBosboom","lat":51.8025,"lon":4.65901,"last_advert":"2026-05-05T12:50:04.000Z","freq":869.618,"sf":8,"bw":62.5,"cr":8},"0299e641efc7ce86a95e77798e5f908e748e3154b7e0fc11ab2a01997be88ad9":{"name":"BE-EGM-RRY45-RPT01\ud83d\udd0b","lat":51.1515,"lon":4.44344,"last_advert":"2026-05-13T11:45:10.000Z","freq":869.618,"sf":8,"bw":62.5,"cr":5},"029e7d2ea05222be90e2ffb40611640cd1bc8c5be165a893746e952de8be3e7b":{"name":"NL-GR-G7R-Solar","lat":53.1534,"lon":6.98197,"last_advert":"2026-04-21T03:32:42.000Z","freq":869.618,"sf":8,"bw":62.5,"cr":8},"02c832ff9353ef18c4e36bb44269643ea2e5d275f1f703a075c4681e5eca7ba0":{"name":"GroundControl \ud83c\udf1e","lat":51.7839,"lon":5.86817,"last_advert":"2026-05-04T06:19:44.000Z","freq":869.618,"sf":8,"bw":62.5,"cr":5},"02cce420dac4a64154fb392d6ead0a59ba4fbd89d321e580a56e597302f25b13":{"name":"NL-LI-GLN-BOSEC-REP01","lat":50.9581,"lon":5.8143,"last_advert":"2026-05-16T10:35:46.000Z","freq":869.618,"sf":8,"bw":62.5,"cr":8},"02e07b39fd35696306ff41a0eaaef8d2978ac81eaf933f5e13180e1ea201da97":{"name":"NL_HGZ_RA_H401","lat":53.1561,"lon":6.74918,"last_advert":"2026-04-18T05:39:38.000Z","freq":869.618,"sf":8,"bw":62.5,"cr":8},"02f572364c429883793c3601b490a697edf06f9c4e9ef1e77e9507e3bd5caf7e":{"name":"NL-ZEM-SOLARHUB1","lat":52.0165,"lon":6.33792,"last_advert":"2026-05-12T17:25:16.000Z","freq":869.618,"sf":7,"bw":62.5,"cr":5},"02fd235470f291fcbd3699c2088af124291d7ae603b729d167da092943a54fb6":{"name":"NL2DOG Repeater","lat":52.0706,"lon":4.36172,"last_advert":"2026-05-15T08:44:33.000Z","freq":869.618,"sf":8,"bw":62.5,"cr":8},"030516fd333ce89a7d0de79129f57a79b80f34b743da38e0989e3d03c92749e2":{"name":"De WAR 4 Repeater","lat":52.1539,"lon":5.39793,"last_advert":"2024-05-19T08:52:33.000Z","freq":869.618,"sf":8,"bw":62.5,"cr":8},"0308094586be12ec60c595157a619ba58fc6793382a23fb641a22605d69a0792":{"name":"NL-Overasselt (PD0M) \ufffd","lat":51.7586,"lon":5.78372,"last_advert":"2026-05-14T13:16:40.000Z","freq":869.618,"sf":7,"bw":62.5,"cr":5},"031c042ffafb0a882056a04f9ba21e5feb202a5e793691e8af4605fe7a87a0d6":{"name":"\ud83c\uddf1\ud83c\uddfaNL-ENS-Sth01-\ufffd","lat":52.2279,"lon":6.92335,"last_advert":"2026-05-04T23:15:13.000Z","freq":869.618,"sf":8,"bw":62.5,"cr":8},"0336e4e716cba039672c13b49fc6bb9ba69a4a42c506984b3a6c7a09e7d257f2":{"name":"Glp Repeater","lat":50.8162,"lon":5.89375,"last_advert":"2024-07-10T08:52:35.000Z","freq":869.525,"sf":11,"bw":250,"cr":5},"033e4887cc928eff08affbf88c0a136c004cbcab8da701e8e7e23efd6f26d7cf":{"name":"nl-utc-sos-R2-testfab","lat":52.1172,"lon":5.30213,"last_advert":"2026-05-03T13:53:17.000Z","freq":869.618,"sf":8,"bw":62.5,"cr":8},"033e6756f715988fe951bfc13cd5a95bb0428bf08b886a4b72308d815ed57f36":{"name":"NL-AMS-CzaarPeter","lat":52.3698,"lon":4.9289,"last_advert":"2026-04-18T20:55:07.000Z","freq":869.618,"sf":8,"bw":62.5,"cr":8},"035543c836939634d1dbf68ce3787b42220eaaa9d2d22e4379c4cd396bd8558c":{"name":"Paleiskwartier","lat":51.6861,"lon":5.28662,"last_advert":"2026-05-15T11:04:58.000Z","freq":869.618,"sf":7,"bw":62.5,"cr":5},"0355e1ab93cb543b0a68c8e81111cab9004918ebbfbb59440b064c565160c8ee":{"name":"NL-BORS-RP1-WTQ_01","lat":51.4258,"lon":3.73582,"last_advert":"2026-05-11T03:36:16.000Z","freq":869.618,"sf":8,"bw":62.5,"cr":8},"035b4e1c74cd9eb6f41761019030bfe1ead245b683fe7c58e4b73de7dc4eb18f":{"name":"NL-MBR-R01-BR","lat":51.1479,"lon":5.90363,"last_advert":"2024-05-26T20:52:33.000Z","freq":869.618,"sf":8,"bw":62.5,"cr":8},"035c7eb20c920747c822655b030505c1487ecbbb448162eb292b0ab7f3fe6631":{"name":"NL Arkel Repeater","lat":51.872,"lon":4.99885,"last_advert":"2026-05-13T11:30:05.000Z","freq":869.618,"sf":7,"bw":62.5,"cr":5},"0376b0420445ee1b47e01712deb42515f33f8454fe1b9af28684fd4f001093c0":{"name":"\ud83c\udde7\ud83c\uddeaTMGEEL03","lat":51.0551,"lon":5.07803,"last_advert":"2026-05-17T12:51:19.000Z","freq":869.618,"sf":8,"bw":62.5,"cr":8},"037e3d89a70bac3c4441e603c5f86e122bb3601cc4eb9df1c9983d9e1dd42192":{"name":"Zegerplas","lat":52.1359,"lon":4.67463,"last_advert":"2026-05-14T01:49:22.000Z","freq":869.618,"sf":7,"bw":62.5,"cr":5},"0385a3a15771595ad33138357ee48dc0a91858a8a256ad9b7e63bc803aede188":{"name":"To3t repeats Alkmaar","lat":52.6511,"lon":4.76004,"last_advert":"2026-05-13T01:45:55.000Z","freq":869.618,"sf":8,"bw":62.5,"cr":8},"0399b47d1cbd0757e74d5399771fb7ba70425b6b552aab1137305b76ba975034":{"name":"DE-NW-RTG-DL5CTE-01 Sol","lat":51.2908,"lon":6.92699,"last_advert":"2026-05-09T14:55:11.000Z","freq":869.618,"sf":8,"bw":62.5,"cr":5},"03a953b1fa604bea551f4b4f744eace30a01fae1373f9d080dfb8aa53ae241c8":{"name":"NL-BHV-Kwinkelier","lat":52.1289,"lon":5.20993,"last_advert":"2026-05-12T10:47:48.000Z","freq":869.618,"sf":8,"bw":62.5,"cr":8},"03c4176a2fdcee4de5cd81bc3dbb55ee11741a2c3e3092410fba8360e5e82fd7":{"name":"Ottersum-Repeater","lat":51.7052,"lon":5.98361,"last_advert":"2024-05-16T20:52:33.000Z","freq":869.618,"sf":8,"bw":62.5,"cr":8},"03d92609b7021019ecc00d34b31e22cb795994bda95705a71636570ed8dcdaac":{"name":"\"NL-ROU-IRCT-REPEATER\"","lat":52.6189,"lon":6.17783,"last_advert":"2024-05-18T20:52:33.000Z","freq":869.618,"sf":8,"bw":62.5,"cr":8},"03ee0a80a7a0f717412eb5991e67df4ac5225cc1ad79f2b7dd099ba912789c36":{"name":"NL-BUW-GJS","lat":51.8777,"lon":5.52206,"last_advert":"2026-05-13T08:53:27.000Z","freq":869.618,"sf":7,"bw":62.5,"cr":5},"0411fdd0626c21e910b659631c508e4db3ec15453a49375e68356ce08c422abd":{"name":"NL-OV-VRH","lat":52.4563,"lon":6.5597,"last_advert":"2026-04-25T16:47:05.000Z","freq":869.618,"sf":8,"bw":62.5,"cr":8},"041382b72b02d793cfed3f0da8842b75c98792ef05dcf6e335c248010a9c0c05":{"name":"VRZL_RPT09 \ud83d\ude92","lat":50.9546,"lon":5.87383,"last_advert":"2026-05-16T08:56:04.000Z","freq":869.618,"sf":8,"bw":62.5,"cr":8},"043119d88e94bf1d0476dcd9f62e3c96963fc6d95e1056acd430e2723eb30859":{"name":"Kessel","lat":51.2965,"lon":6.04465,"last_advert":"2026-05-16T07:56:56.000Z","freq":869.618,"sf":8,"bw":62.5,"cr":8},"044c9c0d5105a0dddf48bc4ddf1652d6d37cb5fa0b4244a217268e46c0aa1d76":{"name":"Erdg [NL GRS]","lat":51.9338,"lon":6.0309,"last_advert":"2026-05-06T18:31:07.000Z","freq":869.618,"sf":8,"bw":62.5,"cr":8},"0460ddda6bc9b167191624ce6db15e52eaaf215c74ca5d5d21f80c856360ff38":{"name":"\ud83c\uddfe\ud83c\uddea NL-NH-RP RAK L","lat":52.2033,"lon":5.13734,"last_advert":"2026-04-24T07:44:13.000Z","freq":869.618,"sf":8,"bw":62.5,"cr":8},"0468f92dfcb8ae984f0f019054c342d5a1cf212359eda23fe713b96f20dd9633":{"name":"BE Zelzate Oost Repeate","lat":51.204,"lon":3.83589,"last_advert":"2026-05-12T18:20:46.000Z","freq":869.618,"sf":8,"bw":62.5,"cr":8},"04695bef42eadd1ae7edf3f4e3a94133f2a6d1c4adc92f259d224a9dc88ece0c":{"name":"Mesh Breda zuid","lat":51.5741,"lon":4.74354,"last_advert":"2025-12-18T11:50:32.000Z","freq":869.618,"sf":8,"bw":62.5,"cr":8},"047da002867a8cdd1dd8f56c5dc8d15162ea91eb7841f2f08d7bcecbec7dd313":{"name":"NL-HOV-Wolfsbos-RP","lat":52.7165,"lon":6.505,"last_advert":"2026-01-07T19:37:39.000Z","freq":869.618,"sf":8,"bw":62.5,"cr":8},"049314d147f018f44633be5b8a4852279295bb5eced77488c451ec83ebc28afa":{"name":"\ud83d\udcf6RPT MOB GWNL\ud83d\udc40","lat":53.5637,"lon":7.24679,"last_advert":"2026-05-11T11:10:53.000Z","freq":869.618,"sf":8,"bw":62.5,"cr":8},"04d6e9b3c6545dc8f4eabab5f6d32c3554bf4d18e016ee36c286f9dc56225622":{"name":"NL_ZAJ_JLG_ESP2","lat":51.0702,"lon":5.85362,"last_advert":"2024-05-17T07:52:33.000Z","freq":869.618,"sf":8,"bw":62.5,"cr":8},"04e8c541c31e7cdb18f1c34bf3665804e11d9b7a77e2067696c868a0bd2d8866":{"name":"NL-DBG-ZH","lat":53.0363,"lon":4.80474,"last_advert":"2026-05-16T03:51:19.000Z","freq":869.618,"sf":8,"bw":62.5,"cr":8},"04ec5cf72e989c95712c6d0e8536ccbed2cd79c2432ec6cc5b006fefa9fd65d1":{"name":"NL-ENS-BK \ud83d\udea7 XiaoS3","lat":52.2218,"lon":6.90061,"last_advert":"2026-05-09T17:05:30.000Z","freq":869.618,"sf":8,"bw":62.5,"cr":5},"04fb757d6b0ffcd0c8f632a8717b330a94756ca7090cf4d56a793bf3f4af4f88":{"name":"Zoetermeer_Seghwaert","lat":52.0642,"lon":4.50438,"last_advert":"2024-06-15T16:00:06.000Z","freq":869.618,"sf":8,"bw":62.5,"cr":8},"05048c466910370902bfa611da0360f625290af2c80703214049c6ef13f48c9b":{"name":"NL-KWK Radio Kootwijk ","lat":52.1762,"lon":5.83351,"last_advert":"2025-12-02T17:47:16.000Z","freq":869.618,"sf":8,"bw":62.5,"cr":8},"0506d31dad833d50a1fe39ec30456c84f7c5b4ddb9dc1765fdae486bc09fb8c5":{"name":"BE-BRU-Phoenix2000_RPT","lat":50.8927,"lon":4.38887,"last_advert":"2026-05-16T08:19:22.000Z","freq":869.618,"sf":8,"bw":62.5,"cr":5},"0517d3d9f18b299a5a4478505153dea9849f306d69e5ec1cf5d296668a1ac6e6":{"name":"NL-GR-HGZ-BM-RP\ud83d\udd0b\u2600","lat":53.1497,"lon":6.76169,"last_advert":"2026-05-08T20:03:25.000Z","freq":869.618,"sf":7,"bw":62.5,"cr":5},"05248e9c042839f5f211882a2228622d918252259ecfc233c383ae05be3a3e07":{"name":"Repeater Assen","lat":52.9991,"lon":6.54782,"last_advert":"2026-01-28T17:34:43.000Z","freq":869.618,"sf":8,"bw":62.5,"cr":8},"052dd85fa817b03152dec7142104219b4331d1abb21bb2d0ae8fbb98e8722769":{"name":"NL-ZH-SCD-Repeater2","lat":51.9104,"lon":4.37491,"last_advert":"2024-05-22T02:52:34.000Z","freq":869.618,"sf":8,"bw":62.5,"cr":5},"055f8d872fa133f5c062f40703b5b6f05acdcfa07ccd3b60426802cc5d9871c8":{"name":"NL-AMS-RP-LEIPESHITOUWE","lat":52.3504,"lon":4.8886,"last_advert":"2024-05-22T08:52:33.000Z","freq":869.618,"sf":7,"bw":62.5,"cr":5},"055fd7962ff4a7a3d1b11f37d555fd52bc1944d06fa6daefb153d1870c507561":{"name":"NL-DEV-RPT-1-\ud83d\udd0c","lat":52.255,"lon":6.1575,"last_advert":"2024-05-18T11:52:33.000Z","freq":869.618,"sf":12,"bw":62.5,"cr":8},"05a8470c22e267dfe0495a92321a9cce74daf6d96825b53ebc5f75c79d76090c":{"name":"TLB-PD2FT-H","lat":51.5923,"lon":4.98733,"last_advert":"2026-04-12T03:21:15.000Z","freq":869.432,"sf":7,"bw":62.5,"cr":5},"05bba82ae6a5b4862c524e5b44a6dcf97c38a65ea487e3c21ce8b0d4909bff2c":{"name":"Ruhrkl. 2 Flughfn. MH","lat":51.3627,"lon":6.9882,"last_advert":"2026-05-15T23:12:09.000Z","freq":869.618,"sf":8,"bw":62.5,"cr":5},"05d1b8f8711d012f13cca9e4e8576e9c71467741db52967da2890120e042421b":{"name":"BE-GNE-BFGyagi-COR-01","lat":51.0533,"lon":3.726,"last_advert":"2026-05-15T23:43:47.000Z","freq":869.618,"sf":8,"bw":62.5,"cr":8},"05d779be1ce322a54b301edb969ef255d6afcbbc727865d8bc58fac5b83f23ed":{"name":"NL-FRL-HvERep","lat":52.8727,"lon":5.81786,"last_advert":"2026-04-29T15:06:32.000Z","freq":869.618,"sf":8,"bw":62.5,"cr":8},"05daba679ae60b92c9ebeddebd59dc769f89ef6ed814ffc631081971cec7733b":{"name":"DE-NW-CAS-OC","lat":51.5455,"lon":7.306,"last_advert":"2026-05-17T11:38:04.000Z","freq":869.618,"sf":8,"bw":62.5,"cr":5},"0606741932dfb8c97366378e330a44f122bd810dbb7784f14d80b2b013c2d05f":{"name":"DWST Duiven-West NL DUI","lat":51.9501,"lon":6.00772,"last_advert":"2026-05-07T11:03:31.000Z","freq":869.618,"sf":8,"bw":62.5,"cr":8},"06119136f294f5385e38bbb7a074552895fbeb1d748fca1fe7b3c75f8b32eb4d":{"name":"DTIS | NL MSL | 3141HV","lat":51.9184,"lon":4.26864,"last_advert":"2024-08-10T20:54:41.000Z","freq":869.618,"sf":8,"bw":62.5,"cr":8},"0666b17e25b48201df51676d50b21551f7125d9ecd9626a603c139283e52bb14":{"name":"NL-RTD-01","lat":51.9054,"lon":4.46661,"last_advert":"2026-05-15T23:35:11.000Z","freq":869.618,"sf":8,"bw":62.5,"cr":8},"066b2d368959b87c2118fb4b6d1a2bede0a0a4bed14e77383d7fbdd676d21f14":{"name":"NL-EIJ RP02","lat":50.7774,"lon":5.70161,"last_advert":"2026-04-23T00:00:42.000Z","freq":869.618,"sf":8,"bw":62.5,"cr":8},"066bf87ad2cc99e7fc9dd3af4b086d986bf4d6aef7ba58da70a6bbdf5533b6fb":{"name":"NL-EDE-RP01_EBK","lat":52.0368,"lon":5.68534,"last_advert":"2026-05-15T18:29:05.000Z","freq":869.618,"sf":7,"bw":62.5,"cr":5},"066c2dac7fb0217867654468743b4ada36bb7e8a3dd284cfd36a3357fbd43ee7":{"name":"UNO-RPT-001","lat":52.0708,"lon":4.52358,"last_advert":"2024-05-26T09:23:28.000Z","freq":869.618,"sf":8,"bw":62.5,"cr":8},"0682c72f019c7d24965fbe499b4e4cdc8fb60bb6a130199ee6fb7738bad01d0e":{"name":"NL-GRQ-Paddepoel\ud83d\udc38","lat":53.2246,"lon":6.5412,"last_advert":"2026-05-14T13:17:39.000Z","freq":869.618,"sf":7,"bw":62.5,"cr":5},"069a37b012088407e777e63703741d648a84e10f83dd0d92c45820a8481cbe90":{"name":"RoKoTer_Repeater","lat":52.7547,"lon":4.90272,"last_advert":"2026-05-17T04:32:29.000Z","freq":869.618,"sf":8,"bw":62.5,"cr":8},"069bb307c699866a40239e39def1b964be9e549f0a61b913724e7cc5e20e93a4":{"name":"T3S3-1262 Robijnstr.","lat":51.9457,"lon":4.46944,"last_advert":"2024-05-15T20:52:31.000Z","freq":869.618,"sf":8,"bw":62.5,"cr":8},"069e0b54845f35e75694564fb30d75e2821bc988f05bb60c04888c37dbfe9f05":{"name":"Netk Delden \ud83d\udc7e","lat":52.2566,"lon":6.71038,"last_advert":"2026-05-07T08:31:43.000Z","freq":869.618,"sf":8,"bw":62.5,"cr":5},"06b1410a4740fdc5b9e15d2d6acb5967f29555084ea54ebb178ec025b5aaea65":{"name":"OLLN Buston 1 Repeater","lat":50.6795,"lon":4.5581,"last_advert":"2026-01-03T18:31:09.000Z","freq":869.618,"sf":8,"bw":62.5,"cr":8},"06b825654e584ac0565f4bf0e5906d1b9c7430752bdaee8ed75776e55ee0e221":{"name":"DE-NW-DUS UKD","lat":51.195,"lon":6.79134,"last_advert":"2026-05-16T09:33:09.000Z","freq":869.618,"sf":8,"bw":62.5,"cr":8},"06c5049025b3b666825b5c42c9428c38c1283902af581fe45345c3644fb68f08":{"name":"NL-DEV-HAV-REP-V2","lat":52.2467,"lon":6.1698,"last_advert":"2026-05-16T08:09:23.000Z","freq":869.618,"sf":7,"bw":62.5,"cr":5},"06c58feb34a2393b08f2c15046faeb886896eda3d97ef20ac70a8644a469083f":{"name":"NL-OLZ-R01","lat":52.31,"lon":6.92864,"last_advert":"2024-06-16T20:52:34.000Z","freq":869.618,"sf":8,"bw":62.5,"cr":5},"06e5519d68eaadc3fd3d8b7883b38016e06e26748c60e327e54f83492434e30b":{"name":"NL-AMV Middenhoven","lat":52.2777,"lon":4.84823,"last_advert":"2024-08-10T01:55:19.000Z","freq":869.618,"sf":8,"bw":62.5,"cr":8},"07000bbd6b43487b7666856b2a44fe7c7a1cbb44a025707d2da1c6ae20c92ada":{"name":"NL-RAA-Keizersveer","lat":51.715,"lon":4.9062,"last_advert":"2026-05-03T09:19:52.000Z","freq":869.618,"sf":8,"bw":62.5,"cr":8},"07017d191bac00de321d1aba6b01eec9e8abcf7fe47dab56e50a70abed2910e3":{"name":"DE-NRW-KR-RPT-4","lat":51.3259,"lon":6.54991,"last_advert":"2024-05-15T17:52:33.000Z","freq":869.618,"sf":8,"bw":62.5,"cr":8},"070f2452400d413c0126a02e0f668bb16e6335d46efe8a410a7ea883bb9d2c84":{"name":"NL-ENS-Glanerbrug","lat":52.2163,"lon":6.9637,"last_advert":"2026-05-13T09:15:18.000Z","freq":869.618,"sf":7,"bw":62.5,"cr":5},"072421320e2b14b594f1308749b17a8b1dd6f1a82029441111792e4f631d74d3":{"name":"NL-OBL-RP-1","lat":51.8252,"lon":4.39456,"last_advert":"2025-12-04T09:45:34.000Z","freq":869.618,"sf":8,"bw":62.5,"cr":8},"074dfc520a58ebe91c97d1943b73259abc36e1567ec6d5562df67c7feb8db5f7":{"name":"Passion-GWNL-mobiel","lat":51.6403,"lon":5.88533,"last_advert":"2026-05-13T22:36:44.000Z","freq":869.618,"sf":7,"bw":62.5,"cr":5},"074f726bbc34f635e5c9acc956e55736a6420124da4d0d3960567f8461cc61ca":{"name":"nl-lb-vkb-pe2kmv-rptr","lat":50.8678,"lon":5.84057,"last_advert":"2026-04-17T09:15:35.000Z","freq":869.618,"sf":8,"bw":62.5,"cr":8},"0764fa3d463a9847634150df81cb3ff6d5361d871e66caa72614822330e0eee8":{"name":"NL-ENS-JoJos_Air","lat":52.229,"lon":6.86301,"last_advert":"2026-01-29T08:47:29.000Z","freq":869.618,"sf":8,"bw":62.5,"cr":8},"07785ae53e8be9ed5e5e8223f2681f2237be8a97f305ee6fb69059b6f602422c":{"name":"DE-NW-DU-Toeppersee","lat":51.4104,"lon":6.67688,"last_advert":"2024-05-16T20:52:33.000Z","freq":869.618,"sf":8,"bw":62.5,"cr":5},"0796efe3f67024fc26c129c1c75800bd25f28eae0df55ff3ef7ee6cefb57509d":{"name":"NL-WMO-RKAA Rpt S","lat":52.5007,"lon":4.83384,"last_advert":"2026-05-15T21:52:53.000Z","freq":869.618,"sf":8,"bw":62.5,"cr":8},"0797e56646ad36968909d10b4d9400844d5405f95a156bd798a98b5d68b8b87d":{"name":"ESP32 S3 Repeater - Tes","lat":52.3763,"lon":5.25027,"last_advert":"2026-05-15T11:55:21.000Z","freq":869.618,"sf":7,"bw":62.5,"cr":5},"07a2238ad03a111d5226dd075dd57e38d16ff4e709763d31e1e811ce11c7f1c4":{"name":"BE-CRL-Mnt-St-Guibert","lat":50.6576,"lon":4.62489,"last_advert":"2026-05-13T04:55:50.000Z","freq":869.618,"sf":8,"bw":62.5,"cr":8},"07ad366d189e3f154d0fbd2b39f2be03c65582419413fe66566d28996d159355":{"name":"ON1AFF-RAK4631-REP","lat":51.094,"lon":4.51301,"last_advert":"2024-06-04T08:52:35.000Z","freq":869.618,"sf":8,"bw":62.5,"cr":5},"07b14b3884e9fb469ba23fe873d8fec238633b63230d850eaba3c921cb8f30b6":{"name":"NL-GEE-RP02-Kluis","lat":50.9624,"lon":5.83483,"last_advert":"2024-05-15T20:52:35.000Z","freq":869.618,"sf":8,"bw":62.5,"cr":8},"07c40f965d01893861c7de36ee0abc4ce8127ccb305a2e7caf4af5da0fa50b56":{"name":"NL-AMS-RB-Y","lat":52.2914,"lon":4.97463,"last_advert":"2026-05-08T05:01:28.000Z","freq":869.618,"sf":8,"bw":62.5,"cr":8},"07c70ca0e5c573cfaba5aefcde195f1995201aeb058eb1b703d8b2c6cf22be73":{"name":"NL-GND-H3MJ-RPT","lat":51.7358,"lon":5.08915,"last_advert":"2026-05-08T13:07:42.000Z","freq":869.618,"sf":7,"bw":62.5,"cr":5},"07d002ad8677c50919019c3ad235fd007d215dc34b144b79bbffebb308f75911":{"name":"DE-NW-E-MalteserRW07-R","lat":51.4529,"lon":7.00844,"last_advert":"2024-05-19T05:52:33.000Z","freq":869.618,"sf":8,"bw":62.5,"cr":5},"07faa40a2a1e169499830f349d0fe3eeaf7685733c97baf1a2ff735380c2f949":{"name":"NL-RZB-RAK4631 Repeater","lat":51.9087,"lon":4.24075,"last_advert":"2024-07-04T04:55:18.000Z","freq":869.618,"sf":8,"bw":62.5,"cr":8},"07fe3a556782780f9b5c0cdaf12b7b6e94874bb36c7573859a52f603f387bd56":{"name":"PI4ANH Repeater Arnhem","lat":51.9855,"lon":5.88372,"last_advert":"2026-05-08T05:35:39.000Z","freq":869.618,"sf":8,"bw":62.5,"cr":8},"080f392f702349ebeac6e975885b7e54c57ed324f8d2cdc8453f9c09d5e15550":{"name":"NL-HAR-RPT-OXPAR","lat":53.1658,"lon":5.44514,"last_advert":"2026-05-10T17:06:52.000Z","freq":869.618,"sf":8,"bw":62.5,"cr":8},"080f3f19fabded79d57137d88e708817d01a652a6aaff2f6063b1d857c4d7160":{"name":"Amf_gilde_mcr2","lat":52.1562,"lon":5.3897,"last_advert":"2026-05-04T10:01:24.000Z","freq":869.618,"sf":8,"bw":62.5,"cr":5},"081175c8eb1ef9fb85ca562294b25c85416f0dbd8ecef86de1248cd09ef0d484":{"name":"NL-DJJ-MCF6 Gorredijk","lat":53.006,"lon":6.08194,"last_advert":"2026-05-13T10:30:14.000Z","freq":869.618,"sf":7,"bw":62.5,"cr":5},"081bde8a1c7c886d937a22f6c9abc3eba9c94d5d2beb430925a1f3a568d0b966":{"name":"NL-HTB-CPO-RPTR-1","lat":51.7277,"lon":5.28755,"last_advert":"2024-05-18T08:52:33.000Z","freq":869.618,"sf":8,"bw":62.5,"cr":8},"0821610393bbe6bfa8e333e218239ced75aeb461ea4db14d3aebf37a540e0029":{"name":"MRANDERSON.NET","lat":51.822,"lon":4.66403,"last_advert":"2024-07-31T23:58:08.000Z","freq":869.618,"sf":8,"bw":62.5,"cr":8},"082287dcb88bde0f805d7dacb7563928293ac158981049506c0c54b8e884d521":{"name":"OostKinderdijk","lat":51.8687,"lon":4.64098,"last_advert":"2026-05-11T01:54:44.000Z","freq":869.618,"sf":8,"bw":62.5,"cr":8},"0824a10fe00b0e090d4aa3dff0bca9683fd2bd59a58dceb542a62b3ec75a20d1":{"name":"HeesseltZolder","lat":51.813,"lon":5.3504,"last_advert":"2024-05-20T13:52:35.000Z","freq":869.618,"sf":7,"bw":62.5,"cr":5},"0825bda3fa9cdc131857581f9dc5e94963bfea7b745d6a8b905551d0d12c179a":{"name":"BE-ANT-PL-RPT-1","lat":51.2288,"lon":4.42792,"last_advert":"2026-05-08T19:30:49.000Z","freq":869.618,"sf":8,"bw":62.5,"cr":5},"085919144ae2a689f58ee4aa9c734caa02186b5ae70431736516317e45a520b8":{"name":"NL-PUM v3","lat":52.497,"lon":4.9733,"last_advert":"2024-05-18T02:52:33.000Z","freq":869.618,"sf":8,"bw":62.5,"cr":8},"0873f28c4d94c6ad7e2e15fc506328c17b3598992aac15e0df6de3f6ed5b9f7f":{"name":"NL-ENS-Bolhaar-Repeater","lat":52.2381,"lon":6.88175,"last_advert":"2000-04-01T12:32:07.000Z","freq":869.618,"sf":8,"bw":62.5,"cr":5},"088505c994a821728eb2ca219053ce9dc39305726624319c3819dd99cceeedb3":{"name":"Hackerhotel","lat":52.2137,"lon":5.14527,"last_advert":"2024-05-17T08:52:34.000Z","freq":869.618,"sf":7,"bw":62.5,"cr":5},"089dde44005a7e3d6416edfddf3c04cb5c5004174d79c1fc90b09a68d5c66a1c":{"name":"NL-GRQ-Winschoten Z (1)","lat":53.1368,"lon":7.0294,"last_advert":"2026-04-19T03:15:40.000Z","freq":869.618,"sf":8,"bw":62.5,"cr":8},"08b22624cfc137ab2644aa0a0e76637f6e642ee55f949106630e13649358845a":{"name":"NL-YPG-RP01","lat":52.0337,"lon":4.35626,"last_advert":"2026-05-15T12:55:25.000Z","freq":869.618,"sf":7,"bw":62.5,"cr":5},"08b23251f33ff9232f1fb7fbeef1e31230d3e310ba5cbb4c7d456f4af8fcf3dd":{"name":"lorazepam","lat":52.1539,"lon":5.41457,"last_advert":"2024-05-16T08:52:32.000Z","freq":869.618,"sf":8,"bw":62.5,"cr":5},"08c5835496eedae8c3e9e17b57b46291b710c63dd9502487db6d55593515dde3":{"name":"NL-LIM-GEE-RPT-PVDL01","lat":50.9858,"lon":5.82458,"last_advert":"2026-05-01T13:24:44.000Z","freq":869.618,"sf":8,"bw":62.5,"cr":8},"08df58108e8e967b1744456d524b8317ae929631b9c008de59f5d5a8c218d38b":{"name":"NL-TLB-PD1PME-1","lat":51.5921,"lon":4.97671,"last_advert":"2026-05-07T14:15:10.000Z","freq":869.618,"sf":8,"bw":62.5,"cr":8},"08faba5f8c0485fbc696eed29583efe6d6c94ef96ceab7d70260e073da0e886a":{"name":"Etten-Leur Centrum-Oost","lat":51.5756,"lon":4.64535,"last_advert":"2026-05-07T12:39:07.000Z","freq":869.618,"sf":8,"bw":62.5,"cr":8},"09023dda6ddbfb315c68fd0942b145b88cdac9f5a43deb46b55a54d4be676a53":{"name":"Sonnensystem","lat":51.4365,"lon":6.95659,"last_advert":"2026-05-16T06:32:42.000Z","freq":869.618,"sf":8,"bw":62.5,"cr":5},"090440b128cefcec63707f74b823cfa1d7b876d5cb28b9c709b286f474fb594c":{"name":"BE_UT_LE_CO_150_RPTR","lat":51.8981,"lon":5.07919,"last_advert":"2026-03-26T19:53:11.000Z","freq":869.618,"sf":8,"bw":62.5,"cr":5},"090690b7e6177000a5da4309bfee373594ef3f20094472466b3d7c057e27f220":{"name":"BE-LGG Retinne","lat":50.6228,"lon":5.70109,"last_advert":"2026-05-16T09:27:22.000Z","freq":869.618,"sf":8,"bw":62.5,"cr":8},"090b270b29172fd96fdb614fd30aea4a6797453abdd69d2e17b8ede1e5fea2d9":{"name":"Woerden-","lat":52.0777,"lon":4.86133,"last_advert":"2026-05-14T12:25:31.000Z","freq":869.618,"sf":7,"bw":62.5,"cr":5},"090fa7ed257cbdef24d4279b2785293a4ad5f07c0c868a50da33d267b59f9cc3":{"name":"NL-ELO-RP02 Catsop","lat":50.9408,"lon":5.77761,"last_advert":"2026-04-25T12:54:45.000Z","freq":869.618,"sf":8,"bw":62.5,"cr":8},"0929425e1059f6da0b3016321040e6d67b48bb35eb010a87e4852c827b3569e6":{"name":"RP_Neuss_Furth_Mitte","lat":51.2114,"lon":6.66896,"last_advert":"2024-05-20T05:52:34.000Z","freq":869.618,"sf":8,"bw":62.5,"cr":5},"0931b64d4a9a3cc691f13caf68cd0e07132cef2bca6aeea6787cefc7d83537d5":{"name":"NL-DR-NWB-RP1","lat":52.9719,"lon":6.94329,"last_advert":"2026-05-07T21:41:05.000Z","freq":869.618,"sf":8,"bw":62.5,"cr":8},"093fb12259441f640b643151a61b30cb2a56d7d9f6261822689ea94a19c1a766":{"name":"BE-HAR-Rijksweg","lat":50.8632,"lon":3.298,"last_advert":"2024-05-25T12:52:34.000Z","freq":869.618,"sf":8,"bw":62.5,"cr":8},"093ff8a025f2d7f945e637a268f9106c367ffa50d7cb30d62b6206a1471455e4":{"name":"NBH","lat":53.0358,"lon":7.04464,"last_advert":"2024-05-15T09:48:52.000Z","freq":869.618,"sf":8,"bw":62.5,"cr":8},"094c0d4368cf5ebba36cd426924fb16b8615d85b048e6ac93a954b6ad32af595":{"name":"Jeffry RIJEN Yagi","lat":51.5882,"lon":4.92343,"last_advert":"2024-07-16T09:39:35.000Z","freq":869.618,"sf":8,"bw":62.5,"cr":5},"095ada71cfe73bf347336d2ba935bfd987c0def80b022d146659694d90101022":{"name":"DTIS | NL UTR | 3584CE","lat":52.0839,"lon":5.16739,"last_advert":"2026-05-15T03:49:45.000Z","freq":869.618,"sf":8,"bw":62.5,"cr":8},"09714d61b3809f62bec52addbfda5ba3b6d8a2425b0022aa2666e6a3263bc9d5":{"name":"nl-ov-bre-rp_Borne","lat":52.3028,"lon":6.75235,"last_advert":"2026-05-09T11:12:22.000Z","freq":869.618,"sf":8,"bw":62.5,"cr":5},"09796fb17ca1bbfed00eeec447ed3891b9b849b7d2e28d1cd60baa044165ae75":{"name":"nl-nb-cuy Landhorst","lat":51.6196,"lon":5.79515,"last_advert":"2026-04-24T17:26:16.000Z","freq":869.618,"sf":8,"bw":62.5,"cr":8},"099dec90b7266ce3c764df2a01e7d7cc70198d1c700096700e6f720aafb82c96":{"name":"DE-NW Bonn-Nord Solar","lat":50.7462,"lon":7.07389,"last_advert":"2026-05-16T10:24:01.000Z","freq":869.618,"sf":8,"bw":62.5,"cr":5},"099fc1939fa1d2248019800d583da7ac4acd515f29dbf5b4c8bcffddb9e25b63":{"name":"NL-DOR-tunneltje","lat":51.8026,"lon":4.67914,"last_advert":"2026-04-28T17:07:53.000Z","freq":869.618,"sf":8,"bw":62.5,"cr":8},"09ba83cebce03579888680b2f720531951f76bc39631ff557f1b68ed0657b52a":{"name":"Blackbox 2 Repeater","lat":51.6403,"lon":4.37948,"last_advert":"2024-05-23T08:52:33.000Z","freq":869.618,"sf":8,"bw":62.5,"cr":8},"09e7a17e073474f65bc5ce54213b7edd7b9116d7592c3e2220e155882cdb5c1b":{"name":"BirdCount","lat":51.4853,"lon":3.51028,"last_advert":"2026-05-15T10:54:45.000Z","freq":869.618,"sf":7,"bw":62.5,"cr":5},"09f27eeb82dabbfc71aa00aa43bd9d7b647b1cc8a0b56a75a3101cfaade4ddc5":{"name":"Heltec Repeater V4.3","lat":52.076,"lon":5.22316,"last_advert":"2095-04-08T12:47:05.000Z","freq":869.618,"sf":8,"bw":62.5,"cr":8},"09f4685ab1fb1d0a423a0004a45035c44f6f87e0975695d9e89ef763266d2b6f":{"name":"Assen-West-Rpt-Zolder26","lat":53.0073,"lon":6.53662,"last_advert":"2024-06-26T01:42:19.000Z","freq":869.618,"sf":8,"bw":62.5,"cr":8},"0a14134aa10b466b0e443af44c7adcb71dddc1289b4f84fc0656971d2463d78b":{"name":"NL-BSP \u2600\ufe0f","lat":52.2867,"lon":4.5946,"last_advert":"2026-05-15T23:18:02.000Z","freq":869.618,"sf":7,"bw":62.5,"cr":5},"0a2b856c2303014d630728e47fffc7ca885458c671c5ac549879b19561239391":{"name":"NL-WRM-ZENDMAST.COM","lat":52.4986,"lon":4.79559,"last_advert":"2026-05-16T04:15:49.000Z","freq":869.618,"sf":8,"bw":62.5,"cr":8},"0a43fb3faa1259a224fdf82717f8bb0bea75121c1c6bab671c3f4cdfef08308b":{"name":"NL-ENK-RP01","lat":52.7188,"lon":5.2705,"last_advert":"2024-07-27T10:55:22.000Z","freq":869.618,"sf":8,"bw":62.5,"cr":8},"0a513b3794f2c1c99c1850a55420c844147a28917fc66af6d0619c1bc2e76847":{"name":"BE-RLA-3PVO-EDG-02","lat":50.9581,"lon":4.92039,"last_advert":"2026-05-16T08:55:38.000Z","freq":869.618,"sf":8,"bw":62.5,"cr":8},"0a6e3210746c95cecc5aff610e37d4f7db2c2153a0c1e123f7c8bd2fde7722fa":{"name":"WaUi-R1","lat":51.5961,"lon":4.92665,"last_advert":"2026-05-01T22:17:11.000Z","freq":869.618,"sf":8,"bw":62.5,"cr":8},"0a72e7e72b74d291b7a62fbd6439f955a2d4dc3e185d883fdaa511f4d0a2e95e":{"name":"Elmpt Repeater","lat":51.2122,"lon":6.16526,"last_advert":"2026-03-16T06:15:38.000Z","freq":869.618,"sf":8,"bw":62.5,"cr":5},"0a78b746c7effb8bfc39ceac69bbcb83d8b26a4ef0da074c1e1e64fd2507fe82":{"name":"Zeewolde Schelpenbuurt","lat":52.3531,"lon":5.53172,"last_advert":"2025-12-19T00:06:50.000Z","freq":869.618,"sf":8,"bw":62.5,"cr":8},"0a7a24a77604bdd07843276974ca2f39b66a789b0f56d16c16ccb106742783c4":{"name":"nl-ut PA3AAA Repeater","lat":52.0671,"lon":5.36659,"last_advert":"2024-05-15T08:56:15.000Z","freq":869.618,"sf":8,"bw":62.5,"cr":8},"0a86c4bcfcc050b5d5144c25ee1b271b999b2ddfe679ce709e9bda54ed7d38c3":{"name":"NL-HAG-Lveen RPT yagi","lat":52.0647,"lon":4.40407,"last_advert":"2026-05-15T12:18:15.000Z","freq":869.618,"sf":8,"bw":62.5,"cr":8},"0a94599e57df02d9dfb967a9b18403ff6224952460200b5cc1fcc6e4a9ae9209":{"name":"PE4BAS Roodeschool","lat":53.4203,"lon":6.76283,"last_advert":"2026-05-11T18:22:13.000Z","freq":869.618,"sf":8,"bw":62.5,"cr":8},"0a9bf87029f9a03e2dea86f078e7321e92b6a1711b7628d8ec72e4bd9fe5f6d2":{"name":"Mike_lelystad_Rep","lat":52.4996,"lon":5.48347,"last_advert":"2024-06-25T20:52:34.000Z","freq":869.618,"sf":8,"bw":62.5,"cr":8},"0acdcaf73618c5b00e6104fbc34117bb9ce6d9249b6558e4999e998630853aff":{"name":"NL-HRB-KX0","lat":51.8782,"lon":6.26418,"last_advert":"2026-04-30T09:36:02.000Z","freq":869.618,"sf":8,"bw":62.5,"cr":8},"0ae35b63a6aa4c8fa3f25cc08e9c38cff79498c861257da134a86e94e77196e7":{"name":"NL-GOE-TD","lat":51.5042,"lon":3.87706,"last_advert":"2026-03-05T19:48:53.000Z","freq":869.618,"sf":8,"bw":62.5,"cr":8},"0af99ae90ab4371ea707ea102fbc89e6c51895beffd3058e404d7016f78eec9d":{"name":"NL-ZH Repeater-VLD EB","lat":51.9149,"lon":4.33663,"last_advert":"2024-05-20T20:52:32.000Z","freq":869.618,"sf":8,"bw":62.5,"cr":8},"0b208ad506fb29ff5e8d58f834f9e0cacb0ef720e377b476061ab87c7a4de7f9":{"name":"NL-OV-boskamp2-pa3cps","lat":52.331,"lon":6.12854,"last_advert":"2024-05-15T08:53:35.000Z","freq":869.618,"sf":8,"bw":62.5,"cr":8},"0b460afbd3422680b2c85ca89a0704c2008b54b5199db93fbdfd026c5627437a":{"name":"DE-NW-GM-Brungerst","lat":51.0322,"lon":7.38846,"last_advert":"2026-05-14T02:32:00.000Z","freq":869.618,"sf":8,"bw":62.5,"cr":5},"0b5e3ea504408a5f65517b6188f1e47107cb1479d76e18806c12786b62e27dd9":{"name":"CornmeisterNL Observer","lat":52.0206,"lon":4.32675,"last_advert":"2026-05-15T16:34:29.000Z","freq":869.618,"sf":7,"bw":62.5,"cr":5},"0b68f18e686028fb3e673d5e1eb6367c694af15551672ea0174a0c86db6afefc":{"name":"NL-OV-DH2-PE1A","lat":52.4691,"lon":6.53076,"last_advert":"2024-05-22T00:52:36.000Z","freq":869.618,"sf":7,"bw":62.5,"cr":5},"0b6dc37b2b57ee7ac9326ac13ec1c194ec7e3fe69818d3ccc27216359827cac4":{"name":"Kakelbont Repeater","lat":51.6535,"lon":5.2224,"last_advert":"2026-05-07T12:53:46.000Z","freq":869.618,"sf":8,"bw":62.5,"cr":8},"0b6fb45ec069482e1c79d8082cbce120aabc66aef391a257707c541a51adccf0":{"name":"NL-ECH-RP02","lat":51.1026,"lon":5.88536,"last_advert":"2026-05-15T23:58:12.000Z","freq":869.618,"sf":8,"bw":62.5,"cr":8},"0b9ce313f8c2fc6307ebcfedbb6d879246e4a9c2c0742782e6b496d06ea41819":{"name":"Beze-Pogo-REP2","lat":51.0578,"lon":4.00534,"last_advert":"2024-05-28T06:10:54.000Z","freq":869.618,"sf":8,"bw":62.5,"cr":8},"0bb4fe1693137e7f89466548b54da082ec5ca4b3eb1d158467e43886f118b2ce":{"name":"NL-MDM-Br00klyn-Yagi","lat":52.7613,"lon":5.10501,"last_advert":"2026-05-16T06:10:22.000Z","freq":869.618,"sf":7,"bw":62.5,"cr":5},"0bc686fa651264540493066abd46d8a39bf53b06ef380244b51c193633a93a75":{"name":"KNG71RPT","lat":52.6699,"lon":4.83006,"last_advert":"2026-05-17T00:09:26.000Z","freq":869.618,"sf":8,"bw":62.5,"cr":8},"0bcc696f6917761f39ce7bcec9e94397922eccf1b6df60b1af77c0549f24caa4":{"name":"NL-ENS-JoJos_Air","lat":52.2289,"lon":6.86343,"last_advert":"2026-05-12T08:08:08.000Z","freq":869.618,"sf":8,"bw":62.5,"cr":5},"0bda4c87a458dee6860b973249872b9e1c223a668a7d03ee6026c9747a7360c0":{"name":"WHY2025-Repeater","lat":52.0783,"lon":5.12074,"last_advert":"2026-05-14T23:08:24.000Z","freq":869.618,"sf":8,"bw":62.5,"cr":8},"0bdd22f4649cd257252b2d9d7213a267a21165788ef02ac6a2d060443d24e7c6":{"name":"Turbo Repeater","lat":51.8142,"lon":4.65993,"last_advert":"2026-03-07T05:26:11.000Z","freq":869.618,"sf":8,"bw":62.5,"cr":8},"0be82b86bec5607547a75b113fb9dfc1c248f7bda848c9b4d9c03080dc7edbcd":{"name":"\u2b06\ufe0fMhfe Yagi Nord","lat":53.5255,"lon":7.26712,"last_advert":"2026-05-04T18:30:47.000Z","freq":869.618,"sf":8,"bw":62.5,"cr":8},"0c347f8901daf540213389e5876299b0a20e0a34f66e78e0a3ca47fab19331bb":{"name":"NL-OLZ-TBL","lat":52.3114,"lon":6.9178,"last_advert":"2026-05-14T18:00:39.000Z","freq":869.618,"sf":8,"bw":62.5,"cr":5},"0c37603369671e57281221a25038b7d0f434d96bb5f393464adccf567a312f2b":{"name":"NL-ARM-4J-RPT","lat":51.5092,"lon":3.70815,"last_advert":"2026-05-08T16:36:40.000Z","freq":869.618,"sf":7,"bw":62.5,"cr":5},"0c37aa7f51319035f0efb2f93fb76f7373f5c4a19f6ec9194b7ea37f5e7dd2e3":{"name":"NL-UTC-RP-ARK\u2693","lat":52.0897,"lon":5.07847,"last_advert":"2026-05-16T10:38:20.000Z","freq":869.618,"sf":7,"bw":62.5,"cr":5},"0c3891db7a7ca9000c74c2d63775515c5d4ad308ec69d597460477a0c3944318":{"name":"NL-LIM-RP1","lat":51.012,"lon":5.83608,"last_advert":"2026-05-06T16:33:57.000Z","freq":869.618,"sf":8,"bw":62.5,"cr":8},"0c401ea651bdff0ec4b142dd7f57f885e18177e2741efbeccc8bbd62b7e54a27":{"name":"NL-GLD_GEESTEREN-0","lat":52.1251,"lon":6.52149,"last_advert":"2024-05-27T08:52:32.000Z","freq":869.618,"sf":8,"bw":62.5,"cr":8},"0c838ed07223a59df5a57a33ffeba51026c3952038f73642db5c8bad4b8fbaee":{"name":"NL-AER-HT-RP01","lat":52.3417,"lon":5.30744,"last_advert":"2024-06-15T04:52:34.000Z","freq":869.618,"sf":8,"bw":62.5,"cr":8},"0cb0c707472a071164f610a45bd8c9b11f51402d12fcc8174fccc38b60615178":{"name":"NL-LEY-Hanzepark-NO-O4","lat":52.5142,"lon":5.47049,"last_advert":"2026-04-29T08:27:45.000Z","freq":869.618,"sf":8,"bw":62.5,"cr":8},"0cb4eae596e0760b2f7bcbc9f28229697b4710e7c3c8855d259acd06316bdc48":{"name":"DTIS | NL MSL | 3141CA","lat":51.9206,"lon":4.26137,"last_advert":"2026-05-14T09:43:05.000Z","freq":869.618,"sf":8,"bw":62.5,"cr":8},"0cc1072461e965d141d629767bd0b202bb0e08f4921bf73b08258fe35c084d9d":{"name":"DE-NW-E-Kunkelsberg","lat":51.3889,"lon":7.035,"last_advert":"2026-03-07T02:41:30.000Z","freq":869.618,"sf":8,"bw":62.5,"cr":8},"0cd55766a398abb9011b221f5e911b897bbd66455e92811248eec0a07147daaf":{"name":"DE-NW-Rees Solar1","lat":51.7577,"lon":6.39,"last_advert":"2026-05-15T03:46:16.000Z","freq":869.618,"sf":8,"bw":62.5,"cr":5},"0cd72b14ff304b81961125bca89d4b5af5ac0f815d3fff5d5e22fe0ebb1e922c":{"name":"NL-KTW-Noord","lat":52.2097,"lon":4.42901,"last_advert":"2026-05-05T20:19:40.000Z","freq":869.618,"sf":8,"bw":62.5,"cr":8},"0cff03d8b8259b7e20eed1b930bef48dfa5a0613939bcec8465149973c82600d":{"name":"mcr1.potatonet.nl","lat":52.0234,"lon":4.6906,"last_advert":"2026-04-29T06:58:09.000Z","freq":869.618,"sf":8,"bw":62.5,"cr":8},"0d1d00147f9657ab31454274fbb9ec01b9ab4f6d0f123291e81f1d2a0ba4cfb8":{"name":"NL-DHR-TDP-EV","lat":52.95,"lon":4.75578,"last_advert":"2026-05-15T12:08:54.000Z","freq":869.618,"sf":8,"bw":62.5,"cr":8},"0d1d09d14bee8089afefabd290133dc1434357898f31c8c7d7cbbca63750017b":{"name":"NL-DHR-TDP-EV","lat":52.95,"lon":4.75578,"last_advert":"2026-05-03T19:07:09.000Z","freq":869.618,"sf":8,"bw":62.5,"cr":8},"0d2acced95fc92c334c13bedbdd07b42968e8749e7a6b37f7d7743429b9f0e9c":{"name":"GCOP_repeater","lat":52.0479,"lon":5.08842,"last_advert":"2024-05-20T08:53:15.000Z","freq":869.618,"sf":8,"bw":62.5,"cr":8},"0d3040096ce230c4b8a6ea00999817c20b0ee64160dde3621c0bfc31b43f9ad0":{"name":"NL-Assen-Pitteloo-Rpt-0","lat":53.0007,"lon":6.53512,"last_advert":"2026-05-16T01:26:56.000Z","freq":869.618,"sf":7,"bw":62.5,"cr":5},"0d3f3bec990d29b8dbd63babc561cc85f30af5a53fce651bf6b73f3d6555422d":{"name":"nl-ede-nw04","lat":52.0526,"lon":5.62747,"last_advert":"2026-05-01T06:15:42.000Z","freq":869.618,"sf":8,"bw":62.5,"cr":8},"0d72cdefcf18173125db30a3d90a7f871670b73304d3c861eaa6f4729464eeae":{"name":"NL-OV-RSN-RPT | MeshFor","lat":52.3093,"lon":6.5046,"last_advert":"2026-05-11T16:12:38.000Z","freq":869.618,"sf":8,"bw":62.5,"cr":5},"0d80992daaf66fde9e9f3ceadb56706a272578006775d84030506d7ad25fe4d0":{"name":"DE-NW-ME-VBT18","lat":51.3202,"lon":7.0574,"last_advert":"2024-05-30T20:52:32.000Z","freq":869.618,"sf":8,"bw":62.5,"cr":5},"0d977750cb51837170d755e28d4ea29b7cc68bec5fb5b80a37cac107cd72f399":{"name":"PA2JH RPT WEZEP","lat":52.4581,"lon":5.9929,"last_advert":"2026-05-09T04:02:23.000Z","freq":869.618,"sf":8,"bw":62.5,"cr":8},"0da0bf3d0ddc5501cd1a1c7595325c362849e90114d2abf40a2ea819e409aace":{"name":"DE-NW-SU-Zeppeater","lat":50.7822,"lon":7.03398,"last_advert":"2026-05-16T05:51:13.000Z","freq":869.618,"sf":8,"bw":62.5,"cr":5},"0da2ce35c981948bdf2fd7ab2fe87998ca5c43e0a016e398a4ba9e7a6fdc776d":{"name":"NL-GRT-RPT-04","lat":51.1964,"lon":5.85826,"last_advert":"2026-04-23T14:03:46.000Z","freq":869.618,"sf":8,"bw":62.5,"cr":8},"0da7f687400f10091f962323f4e60db532b27904e654a3d075a3ba029fa6baeb":{"name":"Jaime_Repeater_MH","lat":51.4405,"lon":6.95301,"last_advert":"2024-08-04T10:55:23.000Z","freq":869.618,"sf":8,"bw":62.5,"cr":5},"0da8dac918db14fa3230e32828507b3f8939ea48f2ced847057b9abff33c324c":{"name":"NL-DR-BARGARES","lat":52.7586,"lon":6.88662,"last_advert":"2026-05-05T22:04:25.000Z","freq":869.618,"sf":8,"bw":62.5,"cr":8},"0dc66e80525b5d0f6d0fa62a79d91ab84f498caede08651472da84d4ddb2fbea":{"name":"NL-Lekkerkerk-Centrum","lat":51.9027,"lon":4.68398,"last_advert":"2024-06-07T08:52:33.000Z","freq":869.618,"sf":8,"bw":62.5,"cr":8},"0ddafd135c309507e20d090f2c6f966787f7c0810469cf19d13444d3beb1b652":{"name":"Tombouctou sur la Meuse","lat":51.0855,"lon":5.79854,"last_advert":"2026-02-18T05:28:17.000Z","freq":869.618,"sf":8,"bw":62.5,"cr":8},"0de5f3948a9c083ae317426fb025a7c36f3fa96af3e9dfc53902f6fd06bb81f5":{"name":"NL-GEE-RP02-Kluis-Airbo","lat":50.9624,"lon":5.8348,"last_advert":"2026-05-11T11:48:22.000Z","freq":869.618,"sf":8,"bw":62.5,"cr":8},"0dec0de489bed24f7d42bcd77c79ff619ab25484531089b7ec60c497d772e113":{"name":"BE-WIE-RRY125\u2600\ufe0f","lat":51.0183,"lon":4.31171,"last_advert":"2026-03-29T15:08:03.000Z","freq":869.618,"sf":8,"bw":62.5,"cr":8},"0dedb0b730729b4aa6334babe4f3e9238602c300ffd4c0a48fe2bb643caa542e":{"name":"Seeed Solar #2","lat":52.2613,"lon":6.7934,"last_advert":"2024-05-18T20:52:34.000Z","freq":869.618,"sf":7,"bw":62.5,"cr":5},"0e1ef85a1258d1a8c1c23f1565b71b662039a87d23df073b4542ba10ab561316":{"name":"DE-NW-AC-52159 Roe2","lat":50.6437,"lon":6.21517,"last_advert":"2026-05-10T19:30:30.000Z","freq":869.618,"sf":8,"bw":62.5,"cr":8},"0e20e5b255b1b94b3154e51395dc507d9ca104904aaba7595e59c5009cec10b7":{"name":"NL-APS MCHMN 2 Rptr","lat":52.9427,"lon":6.39516,"last_advert":"2026-05-07T12:55:50.000Z","freq":869.618,"sf":8,"bw":62.5,"cr":8},"0e2d85839a04646aca875a38f4b3fd53c73de7a9767c92c93e9cb79e14e0fefb":{"name":"HLM-Ballie-Repeater-001","lat":52.4038,"lon":4.64342,"last_advert":"2026-04-27T16:28:51.000Z","freq":869.618,"sf":8,"bw":62.5,"cr":8},"0e38de9f989a6ac39e3c7ee1f7ff54cd299762eacfb9d050b5a1f83a9374b053":{"name":"NL-ZH-VOB-RPRO","lat":52.0821,"lon":4.38695,"last_advert":"2026-05-11T17:32:33.000Z","freq":869.618,"sf":7,"bw":62.5,"cr":5},"0e6cd49455f7cac38ac1b7b20f076c659f615aa88ff54e3150c9244e75253975":{"name":"NL-BSS-0E RPT","lat":52.2757,"lon":5.16359,"last_advert":"2026-05-16T02:52:34.000Z","freq":869.618,"sf":7,"bw":62.5,"cr":5},"0e76d10526f815578ee0b199941e321c85c5e2b64793c3b83e7048480bae1f8d":{"name":"heltec v4 Barendrecht","lat":51.8445,"lon":4.52199,"last_advert":"2026-03-29T18:04:38.000Z","freq":869.618,"sf":8,"bw":62.5,"cr":8},"0e8edbb8282643084521d8c75b6c1c6aca9797d2c2fe67c9cd355bbb6e66558d":{"name":"NL-HZE-NIC0 \ud83c\udf1e","lat":51.3916,"lon":5.56429,"last_advert":"2026-05-04T21:53:07.000Z","freq":869.618,"sf":8,"bw":62.5,"cr":8},"0e9a51c9d566de4ef1039553a07bf676ab6f3901f9bbc334d418c5328252f9ba":{"name":"NL-GLD-ELB-Brizzik-Sola","lat":52.4515,"lon":5.85719,"last_advert":"2026-05-11T10:17:01.000Z","freq":869.618,"sf":8,"bw":62.5,"cr":8},"0ea11c9db8c4f0c8a31921abcbd989e289036de07fc60012a6951e9450344a0b":{"name":"NL-OHP-VOS-02","lat":52.891,"lon":6.04552,"last_advert":"2026-04-20T16:45:03.000Z","freq":869.618,"sf":8,"bw":62.5,"cr":8},"0eb0b931001b9fd17b9a5cf75e4d047aedaf3b3b4f792830dea1299ae77c8de5":{"name":"DTIS | NL LID | 2333CR","lat":52.1648,"lon":4.47288,"last_advert":"2026-05-17T01:53:28.000Z","freq":869.618,"sf":8,"bw":62.5,"cr":8},"0eb0e26d86f3a7bbb16e3882b2878a44fd94489117813facfca8e2d434e492fc":{"name":"SHTF P-repeater","lat":51.1702,"lon":6.97305,"last_advert":"2026-04-20T11:14:31.000Z","freq":869.618,"sf":8,"bw":62.5,"cr":8},"0ebd506ebf1e3b799c91dfd3846e1f5ef692663f7d8bdb364192ae31b98878d6":{"name":"NL-SCE-Humble-Rel2","lat":52.0957,"lon":4.27139,"last_advert":"2026-05-10T19:25:35.000Z","freq":869.618,"sf":7,"bw":62.5,"cr":5},"0ecd157526b443b356cc59c05acefaa9f0628a86008212acc0c324d37ef547e4":{"name":"DL-NRW-AC-52076-Walheim","lat":50.7116,"lon":6.17588,"last_advert":"2024-05-15T09:00:33.000Z","freq":869.618,"sf":8,"bw":62.5,"cr":8},"0edfb5c0dfe423d874c7933a3c739395552e3c2250e5fb018f90c804eaee0552":{"name":"DF0X Repeater","lat":52.1762,"lon":7.06649,"last_advert":"2026-04-16T14:30:17.000Z","freq":869.618,"sf":8,"bw":62.5,"cr":8},"0f096e736629b7550b245b1d3f956fa2fb14a6e01d6a1381f69360a6a54a9ccc":{"name":"NL-NWS-RP01","lat":51.0363,"lon":5.8696,"last_advert":"2026-05-16T09:40:31.000Z","freq":869.618,"sf":8,"bw":62.5,"cr":8},"0f2030a91cba59125dc34758a547ad919c85dfff5e9429e9cc51756e594b2e84":{"name":"REPEATER WEZUPERBRUG","lat":52.8409,"lon":6.7207,"last_advert":"2025-12-11T17:08:20.000Z","freq":869.618,"sf":8,"bw":62.5,"cr":8},"0f365cf4f51d9122981b4a03c6248b15d833a0f9a11669d7ab1bd44d108f6552":{"name":"Odel-LeCrof-WioTracker","lat":51.5774,"lon":4.9828,"last_advert":"2024-05-20T08:52:33.000Z","freq":869.618,"sf":8,"bw":62.5,"cr":8},"0f3839fdf36bc3ee483539d4465d5e182e803bec9b4cee5101e2557b79d087c8":{"name":"REP-DEV-7422","lat":52.247,"lon":6.2175,"last_advert":"2026-05-16T03:38:46.000Z","freq":869.618,"sf":7,"bw":62.5,"cr":5},"0f3bf711347b5219f62dd426cd618a3317ba7514c7d90b7d7ad81b86d455ac66":{"name":"nl-ge-ltn-Mont d'Or","lat":52.0865,"lon":5.6191,"last_advert":"2026-04-16T06:59:08.000Z","freq":869.618,"sf":8,"bw":62.5,"cr":5},"0f47577cfe681045bfb3f000dc95819d3ff3a8b5158ae9f5a64b92b7e0a61dd3":{"name":"NL_VHZ pluto","lat":52.1981,"lon":5.65071,"last_advert":"2026-05-06T18:12:22.000Z","freq":869.618,"sf":8,"bw":62.5,"cr":8},"0f47e3328e7afba6271e2ef00a8c10f4691217a9acecbff00c97b30113619a33":{"name":"St.T\u00f6nis","lat":51.3172,"lon":6.48867,"last_advert":"2025-11-02T14:31:12.000Z","freq":869.618,"sf":8,"bw":62.5,"cr":8},"0f7234e53379b696407b9c95e2e2addb25c30bf6a37e9ca63a3d4149f9f2aec6":{"name":"Agnatyn Repeater","lat":52.347,"lon":6.17917,"last_advert":"2026-05-09T17:31:22.000Z","freq":869.618,"sf":8,"bw":62.5,"cr":8},"0f87e30677600935b540bac2e0c6cbb7ae038f5193b63629d8aa7bff1aab4872":{"name":"NL-DARES-R21-Empel","lat":51.7343,"lon":5.32884,"last_advert":"2026-05-10T18:51:32.000Z","freq":869.618,"sf":7,"bw":62.5,"cr":5},"0f884f4a8684942e75fb22cd486749f7df60395ecac3c2a4a2e4e3204c63b9c5":{"name":"NL_HGL_Rolf_T114\ud83d\udd0b\u26a1","lat":52.2704,"lon":6.80742,"last_advert":"2026-05-09T07:31:53.000Z","freq":869.618,"sf":8,"bw":62.5,"cr":8},"0fb2b6ed27e47ea2a369d89271679b9993db5a30250d7670d7e4fe52cf98be27":{"name":"NL-GRQ-MAT\u26a1\ud83d\udd0b","lat":53.2307,"lon":6.57946,"last_advert":"2024-05-27T08:52:33.000Z","freq":869.618,"sf":8,"bw":62.5,"cr":8},"0fbfa7a938c054e65ee5ca8d24936b08b01f2cb501724a77a0fecf70622bb338":{"name":"NL-NIJ-Nb-O 2","lat":51.8307,"lon":5.82045,"last_advert":"2026-05-16T08:37:12.000Z","freq":869.618,"sf":7,"bw":62.5,"cr":5},"0fe1d26a1763a3653562fa49648a21ec4fd6631b0688eeb4bf9b88235e561036":{"name":"NL-HGL-Roershoek","lat":52.2848,"lon":6.80877,"last_advert":"2024-05-29T08:52:34.000Z","freq":869.618,"sf":8,"bw":62.5,"cr":5},"0ff18ab54ce448c5ddc3bf502abc0e82de057614d3e25455fb89bc215b81c9e4":{"name":"BE-SCT-Deuzeld","lat":51.246,"lon":4.45788,"last_advert":"2026-05-15T04:24:53.000Z","freq":869.618,"sf":8,"bw":62.5,"cr":8},"0ffeb2938eb5726f2484de9f73768d97ef5dfd5453609c2e4a09406ed3000570":{"name":"NL-ENS-BK\ud83d\udc41\ufe0f\ud83d\udc4120m","lat":52.2218,"lon":6.90082,"last_advert":"2026-05-07T04:22:18.000Z","freq":869.618,"sf":8,"bw":62.5,"cr":5},"100001e845f55c40eb14fb425e78a55172c7562d0efaced92863c9077999a1b4":{"name":"NL-MAL-R-1","lat":51.9331,"lon":4.26337,"last_advert":"2026-05-15T11:19:29.000Z","freq":869.618,"sf":7,"bw":62.5,"cr":5},"100849d35766cc527016e82bd2dedba75204265346aabb5c834a4496991e7fe8":{"name":"NL-GEE-RP03-Lutterade","lat":50.9743,"lon":5.82639,"last_advert":"2026-05-16T10:22:30.000Z","freq":869.618,"sf":8,"bw":62.5,"cr":8},"1019900835f5d3b267c8c605b974d422a20f178b49f7999231f6db12f4d25a64":{"name":"Restricted Area 51","lat":52.7013,"lon":6.22783,"last_advert":"2024-05-25T08:52:35.000Z","freq":869.618,"sf":8,"bw":62.5,"cr":8},"10422fc7afdec7a02f1ae868a97a76fe2cd9d496f1a157682ee2e7de3661e386":{"name":"NL-HZN-MARK-RETEPV","lat":52.3037,"lon":5.25932,"last_advert":"2024-06-23T20:52:34.000Z","freq":869.618,"sf":8,"bw":62.5,"cr":8},"10509cfeb79d7758c27a761db89dc90951c2895663643ad8e9dbc108631c9b98":{"name":"DE-NW-KET-RHR-RPT","lat":51.3654,"lon":6.94211,"last_advert":"2026-05-16T03:14:12.000Z","freq":869.618,"sf":8,"bw":62.5,"cr":5},"10514f5071f836b1703dd5a168bfa1e8dc026a0fb93341c53a1f1f9c1c88ebe9":{"name":"nl-mst repeater pa3hdz","lat":50.8089,"lon":5.72976,"last_advert":"2024-05-15T08:52:31.000Z","freq":869.618,"sf":8,"bw":62.5,"cr":8},"105ae46abd605d23138e64a8935cf2eb9722cda30b0bb1955c1db1863c21f22f":{"name":"NL-UTR-HOLRAD-REPEAT","lat":52.1763,"lon":5.18056,"last_advert":"2026-05-03T00:00:00.000Z","freq":869.618,"sf":8,"bw":62.5,"cr":5},"105c481eb965b5eac54bf57ecb1a12f6188ef46c438497898ad5d0eeb8145668":{"name":"NL-OV-ZWO-ITT-HTV4","lat":52.4832,"lon":6.11194,"last_advert":"2026-05-07T15:41:09.000Z","freq":869.618,"sf":8,"bw":62.5,"cr":5},"10743b7693417ed82f02387eee38ecafe1ab741f9c82aed4b4b1bf043686256e":{"name":"DE-NW-MH-Tinkrathstrass","lat":51.4278,"lon":6.93228,"last_advert":"2026-05-16T07:54:12.000Z","freq":869.618,"sf":8,"bw":62.5,"cr":5},"10767675e50d2db1a1d81af79b51210e9849c251a8a9fdf181022b3fc0e703c7":{"name":"NL-HSL-JRN","lat":51.8287,"lon":4.14938,"last_advert":"2026-05-16T05:30:38.000Z","freq":869.618,"sf":7,"bw":62.5,"cr":5},"1087d3a8a8146f177bcb894d47efb495bfa82add00a1cd5a7d60859041a6fe59":{"name":"Rosmalen GW","lat":51.7367,"lon":5.36117,"last_advert":"2024-09-21T23:46:27.000Z","freq":869.618,"sf":8,"bw":62.5,"cr":8},"109bf2c6bfc70e2b0e0a0e7ff7d74765823943794eedfc5a3496e6997c0edcbb":{"name":"AFU-TOOLS.DE Repeater","lat":51.4086,"lon":6.33471,"last_advert":"2026-01-10T23:12:22.000Z","freq":869.618,"sf":8,"bw":62.5,"cr":8},"10a63468754b77719a7597229da4042ca0ce1f5ce1c2ab1db016a53dc65a1b69":{"name":"NL-LID-Profwijk RP01","lat":52.1485,"lon":4.49556,"last_advert":"2024-05-15T20:52:33.000Z","freq":869.618,"sf":8,"bw":62.5,"cr":5},"10a6ef04096e230ec91c0322493608cf8aef52cd4153c4ca28b14a76033bff8d":{"name":"Repeater MR Delft","lat":51.9805,"lon":4.3583,"last_advert":"2026-05-11T09:24:29.000Z","freq":869.618,"sf":7,"bw":62.5,"cr":5},"10cc8ee0b85c3b242599f52824683487a34a02f50cdc6510d33713d9bcc2b1e4":{"name":"NL-HUS L3N","lat":51.9277,"lon":5.93499,"last_advert":"2026-05-15T02:51:35.000Z","freq":869.618,"sf":7,"bw":62.5,"cr":5},"10d34bd24298fae601fc01939e36946d91c5e01c8eda4b4b339d7d6cc4801df9":{"name":"GAZ","lat":51.2557,"lon":6.95155,"last_advert":"2024-05-15T09:18:19.000Z","freq":869.618,"sf":8,"bw":62.5,"cr":5},"10e598b3425d5b594f00f1aea224442cd36968ec238c5993fc248d3e8273e28d":{"name":"Cas Repeater 2","lat":51.8034,"lon":5.73006,"last_advert":"2024-10-30T22:03:22.000Z","freq":869.618,"sf":7,"bw":62.5,"cr":5},"1109e42433c64ed826bbc7812fe9a934d48d5afa1b46fa06a9c288e14de54a8a":{"name":"H1RP","lat":52.0131,"lon":4.43244,"last_advert":"2026-05-15T11:02:36.000Z","freq":869.618,"sf":8,"bw":62.5,"cr":8},"110a77dd37877e4985359cda0dc5f95d0e3dea25d5a60d1cac3e5675285172e9":{"name":"NL-DON-BKNSTR","lat":51.619,"lon":4.94559,"last_advert":"2025-12-27T17:30:15.000Z","freq":869.618,"sf":8,"bw":62.5,"cr":8},"111111152028076aef0c07ae27f261bd12521b420c16e444c1a6abf7627cba90":{"name":"NL-MSS-BJS-RP-SC1\u2600\ufe0f","lat":52.1473,"lon":5.03898,"last_advert":"2026-05-16T02:50:24.000Z","freq":869.618,"sf":8,"bw":62.5,"cr":8},"11118b75cc369e3cffd0c6ff78934cf00cb0367f43444b57529f8d3e4158ea99":{"name":"NL-HAG-MeshGyver","lat":52.0806,"lon":4.25834,"last_advert":"2026-05-16T04:48:00.000Z","freq":869.618,"sf":7,"bw":62.5,"cr":5},"1113d9b5f478d482b2f95da05df373b32c46f8e5b2e6b2c7bf7de20f99b2167c":{"name":"nl-ams grens 1113","lat":52.3501,"lon":4.98092,"last_advert":"2026-05-15T17:47:25.000Z","freq":869.618,"sf":7,"bw":62.5,"cr":5},"111c4ca6cad898d4458d49b0428b2d02f919e40e3a1ef96a9cfef3db04e333a5":{"name":"DE NRW 41334 Schaag I","lat":51.2789,"lon":6.24337,"last_advert":"2024-05-21T05:52:33.000Z","freq":869.618,"sf":8,"bw":62.5,"cr":5},"112d3e02b02323af79778f5fabe7f6a596ae4099bfb83ac4c8320a2de0f07ac1":{"name":"\ud83c\udde7\ud83c\uddeaB2300_Turnhout_","lat":51.3253,"lon":4.93531,"last_advert":"2026-02-13T14:24:02.000Z","freq":869.618,"sf":8,"bw":62.5,"cr":8},"1141f0ddab07d426d5482c5932d57ed4f251833c49915f0718b6b030acdb8457":{"name":"NL-UTR-WIJFFIE \ud83d\udd0b\u2600","lat":52.0886,"lon":5.15206,"last_advert":"2026-05-04T15:22:34.000Z","freq":869.618,"sf":8,"bw":62.5,"cr":5},"11609950cefecb522a186388a971d2902b02baa182be3c92a2b61b3d92d6d82c":{"name":"\ud83c\uddea\ud83c\uddec Airplane Repea","lat":51.2544,"lon":5.60117,"last_advert":"2026-04-23T13:05:42.000Z","freq":869.618,"sf":8,"bw":62.5,"cr":8},"11706967c54a0f6e4e9272104c5607b526ae5c48933069f3252236cf87e79775":{"name":"BE-BRU-Tercoigne","lat":50.8138,"lon":4.40302,"last_advert":"2026-05-08T14:03:25.000Z","freq":869.618,"sf":8,"bw":62.5,"cr":8},"118333372952320cc53120c27d178982d8f7d607bdadd5cc87e8436c8ba14005":{"name":"NL-RTD-HOOGVLIET","lat":51.8563,"lon":4.37065,"last_advert":"2024-07-22T19:09:51.000Z","freq":869.618,"sf":8,"bw":62.5,"cr":8},"118926311aa94826abc7973586da2bc69bc70f93f3f16610e832d5d9e8204b1b":{"name":"BE-3010 LL RPT02","lat":50.8838,"lon":4.76872,"last_advert":"2026-05-15T19:21:04.000Z","freq":869.618,"sf":8,"bw":62.5,"cr":8},"11ab02542df87620bf7751cf97def6e3a14a6484245ee5b5b0cc7bf4c7540457":{"name":"NL-BRN-RP Rozengaard","lat":50.9525,"lon":5.97302,"last_advert":"2026-05-09T09:43:25.000Z","freq":869.618,"sf":8,"bw":62.5,"cr":8},"11be651d8854a7bb3fb5cbff41094300fb9fa3c9c0ae8a033160180e6adf7d13":{"name":"DB8FX D-NW-Gahlen Sued","lat":51.6664,"lon":6.8787,"last_advert":"2024-05-16T23:34:58.000Z","freq":869.618,"sf":8,"bw":62.5,"cr":5},"11c6db47ed98895cc5ca44cb1cc4cb258481884b25c11256ab3f8a83ffa5ecb5":{"name":"D-SU-53757 StAugustin A","lat":50.7798,"lon":7.1886,"last_advert":"2026-04-23T09:45:22.000Z","freq":869.618,"sf":8,"bw":62.5,"cr":5},"11d19377a266a1b3a6a8a2f26bc2faddaa20466f1609189d5ed1f322dcbfc0bc":{"name":"NL-APE-Jurriaan-Home","lat":52.2294,"lon":5.95348,"last_advert":"2026-05-09T16:06:26.000Z","freq":869.618,"sf":8,"bw":62.5,"cr":8},"11db5c7bc140a5006985150e648fa13993d0d3556e1838b4722441ce732c76ce":{"name":"NL OGE RhijngeestZ","lat":52.1721,"lon":4.44853,"last_advert":"2024-07-20T12:18:42.000Z","freq":869.618,"sf":8,"bw":62.5,"cr":8},"11f6862a4d2f1027e8b3cbcfe0447da63154a601304cb1f44810cf06e988bf87":{"name":"NL_Repeater_Lunteren","lat":52.0994,"lon":5.64313,"last_advert":"1970-01-02T07:47:33.000Z","freq":869.618,"sf":8,"bw":62.5,"cr":8},"121099d71181deb1d05c0e648258ec3a4e775be737e4135fd60e92e8f70e3f23":{"name":"ZTM Centrum Oost repeat","lat":52.0619,"lon":4.49422,"last_advert":"2026-04-16T13:07:34.000Z","freq":869.618,"sf":8,"bw":62.5,"cr":5},"1214e02ea0c013a86a4446ee3edd55ef4cf555965bdbafa8fc15e08cc8d8b63f":{"name":"Repeater Sprundel02","lat":51.5356,"lon":4.58621,"last_advert":"2026-05-09T12:13:50.000Z","freq":869.618,"sf":8,"bw":62.5,"cr":8},"121ca08a14879679b43181444a7396292b056304e22abe0b2f8f004a6d349c5f":{"name":"NL-NDP-Niels-Repeater","lat":52.0502,"lon":4.39131,"last_advert":"2026-05-15T05:13:55.000Z","freq":869.618,"sf":7,"bw":62.5,"cr":5},"12226b61c8d960183435474c0b77eb38b4f413ba9dad822f93a555998cce7c38":{"name":"BE-HEP-SaWoFi-RPT01","lat":51.104,"lon":5.24997,"last_advert":"2026-05-13T11:49:53.000Z","freq":869.618,"sf":8,"bw":62.5,"cr":8},"122746f39927269b0cacc8c952081e1570529d54c21dbf565de53ebe644b970e":{"name":"NL-MST-Mescherheide","lat":50.7731,"lon":5.74759,"last_advert":"2026-05-16T02:47:48.000Z","freq":869.618,"sf":8,"bw":62.5,"cr":8},"122a75f3a74f5d05d3a27f3af5c869151f5bf5d7e38321d57f118ea5bd4b799c":{"name":"NL0BKA-R-v4","lat":52.0757,"lon":4.76601,"last_advert":"2026-05-16T02:47:21.000Z","freq":869.618,"sf":7,"bw":62.5,"cr":5},"123456b02c963a2148359f5ac16fdc556ad4ffcf4c63b324e305778e5ba20c10":{"name":"NL-AER-RP01-FAUNABUURT","lat":52.384,"lon":5.27067,"last_advert":"2026-05-10T06:30:35.000Z","freq":869.618,"sf":7,"bw":62.5,"cr":5},"12448b297dab642a019c16a26621fa9c543cc33cdf4412bf6de9ee1827d8d915":{"name":"NL-EIN-RP-GCC","lat":51.4833,"lon":5.455,"last_advert":"2024-05-17T09:22:34.000Z","freq":869.618,"sf":7,"bw":62.5,"cr":5},"125dcf4cc1fb0af611f9fabbbd2d8527f1048161d74090cf3f19961a7b352cd2":{"name":"De_Slakken\ud83d\udc0c","lat":51.1133,"lon":3.21933,"last_advert":"2024-05-15T14:41:19.000Z","freq":869.618,"sf":8,"bw":62.5,"cr":8},"1275abe28cecf76a3258ee659b63c1d393a277ebc7df8645f0206c9b5dea2fa1":{"name":"Arnhem Geitenkamp","lat":52.0047,"lon":5.93952,"last_advert":"2024-05-21T08:52:33.000Z","freq":869.618,"sf":7,"bw":62.5,"cr":5},"128579b2413d09bb3e5f966e740fccb0b16fef86ed32f7bfd4534376db9abbc9":{"name":"Zaan Mesh Repeater","lat":52.4625,"lon":4.80753,"last_advert":"2024-06-11T07:35:53.000Z","freq":869.618,"sf":8,"bw":62.5,"cr":8},"12a423f448650184a535c0c2f3657a5ee005784d60b0a153707129bdea993b7b":{"name":"\ud83d\udcf6 DE-HT5 RPT Hinte","lat":53.4165,"lon":7.18975,"last_advert":"2026-05-02T05:02:13.000Z","freq":869.618,"sf":8,"bw":62.5,"cr":8},"12a7e2342157b5b3edeb2db198c46bb78e7fc08221c91f4356ae991c541a508e":{"name":"Weakkes Mobiele Repeate","lat":52.14,"lon":5.43626,"last_advert":"2024-05-17T17:00:11.000Z","freq":869.618,"sf":8,"bw":62.5,"cr":8},"12b24e7c44690e2c4f8da47b225e0d63b2a4e62294fcdb2cd4324d21a0c6ca39":{"name":"BE-MOR-ON2OT-OBS","lat":51.1706,"lon":4.46683,"last_advert":"2026-05-15T22:22:25.000Z","freq":869.617,"sf":8,"bw":62.5,"cr":8},"12d8c0d29b74b1fb51d05298fa57981880be25e322c1b2cdf97d9ee6ed9f74c5":{"name":"Traveling Barts Repeate","lat":51.5237,"lon":5.9991,"last_advert":"2026-05-11T20:06:09.000Z","freq":869.618,"sf":8,"bw":62.5,"cr":5},"12e37e04a9cb6aba9332d94d4d15a981a418e733dc8a689e3b1b818b689a4219":{"name":"NL-WFL-OPP-2","lat":52.7561,"lon":5.07544,"last_advert":"2024-05-15T20:52:33.000Z","freq":869.618,"sf":8,"bw":62.5,"cr":8},"130ab73c3d55e6fd7ead170d2d6a983951c4535f73c1bec8962fa8b861a697fd":{"name":"NL_VOS_RP_RBT1","lat":52.1421,"lon":4.45365,"last_advert":"2024-06-22T21:41:52.000Z","freq":869.618,"sf":8,"bw":62.5,"cr":8},"130c91c3e929645603f4161060e67251de775419dd81eb316222dab4b3d54ffa":{"name":"NL-KP9FNT-Repeater","lat":51.6343,"lon":4.47308,"last_advert":"2026-02-07T13:38:02.000Z","freq":869.618,"sf":8,"bw":62.5,"cr":8},"130d4d2cd6578969938ae74d5971b21fc2275c52fec7527b73f1204aec9b117f":{"name":"NL-LMP-OtizSmalvelder","lat":51.5597,"lon":5.36859,"last_advert":"2026-05-02T22:28:41.000Z","freq":869.618,"sf":8,"bw":62.5,"cr":8},"131fdd3ca29ad5edef8ecb768ce6b245dd4d9f0cef3bf09047090c22114bb513":{"name":"NL-PAP-RubenS-Solar","lat":51.8357,"lon":4.71913,"last_advert":"2024-05-30T20:52:35.000Z","freq":869.618,"sf":8,"bw":62.5,"cr":5},"13237d0a0f5801b286a07026d5de09ab2942f4c46e05c6d0bdf3465a84bf5692":{"name":"NL-DEIL-4158-RPT","lat":51.8844,"lon":5.24572,"last_advert":"2026-05-14T20:49:16.000Z","freq":869.618,"sf":7,"bw":62.5,"cr":5},"133701139b069823325c7de1650a737ecf1e3d6b736421d367f9260e025524ad":{"name":"NL HAG T","lat":52.0853,"lon":4.33868,"last_advert":"2026-04-24T05:42:43.000Z","freq":869.618,"sf":8,"bw":62.5,"cr":8},"1337423b8cf67a01c0c519b13dbf92344b2ec1b54168adc81018d52ae2a3f128":{"name":"NL-GRQ-JJ1-RPT01\u26a1\ufe0f","lat":53.2,"lon":6.55651,"last_advert":"2026-05-15T05:47:18.000Z","freq":869.618,"sf":7,"bw":62.5,"cr":5},"1337c0de07b1f7a697b2ef6c87976d20d6183d7d7312f1aef886b0bd8fb5ec3b":{"name":"PH4T repeater \ud83d\udd0b","lat":52.4958,"lon":4.9259,"last_advert":"2024-06-02T08:09:47.000Z","freq":869.618,"sf":8,"bw":62.5,"cr":8},"135f5bc9214cceb7dd659854a4de30bfff884670fd97c08a13f00ca5ff958db4":{"name":"NL-GLD-WZP-SOL-PA2JH","lat":52.4581,"lon":5.99289,"last_advert":"2026-05-08T23:58:35.000Z","freq":869.618,"sf":8,"bw":62.5,"cr":5},"137deaf5f5db364667a62a7ffbdd23c3567ce8723741513c9f9cc63bbb069394":{"name":"PFB Repeater","lat":51.327,"lon":6.89783,"last_advert":"2025-12-29T19:39:40.000Z","freq":869.525,"sf":11,"bw":250,"cr":5},"138826811d2ef8ab7c608dcc57f48a05987e6bafc4f8df3333df0cf2520a7341":{"name":"PD5SW Repeater","lat":51.1104,"lon":5.88059,"last_advert":"2024-05-15T20:52:33.000Z","freq":869.618,"sf":8,"bw":62.5,"cr":8},"13d948a6ecad8053d73e3362f76836b567bc31ee51171e94fa17066061638d4a":{"name":"BE-MLO-RAUWYAGI-EDG-01","lat":51.2054,"lon":5.19485,"last_advert":"2026-05-15T22:16:37.000Z","freq":869.618,"sf":8,"bw":62.5,"cr":8},"13dead1dab5bc8aff0656b437d7fb12999a62ebdf49f493b96fe23f9557ce2ad":{"name":"AMS Molenwijk \ud83d\udc80","lat":52.4166,"lon":4.88999,"last_advert":"2024-06-21T14:06:21.000Z","freq":869.618,"sf":8,"bw":62.5,"cr":8},"13f3b8a04311ae2a8396df50bdd2bfca3b21667bc88b7f296e42602c84808398":{"name":"Goverwelle Repeater","lat":52.0078,"lon":4.74944,"last_advert":"2026-05-04T22:40:35.000Z","freq":869.618,"sf":8,"bw":62.5,"cr":8},"14036f132198eac335491d28224d168e51e0b2d2f5fd92e0e89382d28ab791eb":{"name":"BE-ZOD-MOSKEE-DIS","lat":51.0432,"lon":5.30664,"last_advert":"2026-05-15T14:03:01.000Z","freq":869.618,"sf":8,"bw":62.5,"cr":8},"14081e34655f0905dd9e671e5fd1b7f53f7b769071ebea3eb67816aea8232c2f":{"name":"NL-AME-Kattenbroek-Rptr","lat":52.1923,"lon":5.40223,"last_advert":"2026-05-07T17:05:45.000Z","freq":869.618,"sf":8,"bw":62.5,"cr":8},"140ca65ea38b4ee91716adf71b121433d675485260cffd09900508ed1f1bdac7":{"name":"NL-AMF_SK01","lat":52.159,"lon":5.35973,"last_advert":"2026-05-15T03:06:25.000Z","freq":869.618,"sf":8,"bw":62.5,"cr":8},"141008ae162378b234c73a3cf4effefaae86cf2cf16f12b7cdde6544368e75dc":{"name":"NL-OGE-RhijngeestN2","lat":52.1772,"lon":4.45083,"last_advert":"2026-05-15T20:57:45.000Z","freq":869.618,"sf":7,"bw":62.5,"cr":5},"142db98a853fe893962658a2a89dfdbbc03b2854209d379fc0f5a98609a37fc0":{"name":"NL-GRQ-LWB ","lat":53.2323,"lon":6.61794,"last_advert":"2024-05-24T19:25:14.000Z","freq":869.618,"sf":8,"bw":62.5,"cr":8},"145a523af05e5b21e607b1ba4d022c5040b1ce0fcb7fc1516628667d2c95c122":{"name":"Repeater-DAT2","lat":51.649,"lon":7.34243,"last_advert":"2026-05-07T13:05:45.000Z","freq":869.618,"sf":8,"bw":62.5,"cr":8},"146faf5a48253648adccf7eddb7c7903768c3fdf80100329aeca29bec884b4f2":{"name":"DE-NW-ME-LFD-1","lat":51.1036,"lon":6.95603,"last_advert":"2024-05-23T09:19:45.000Z","freq":869.618,"sf":8,"bw":62.5,"cr":8},"147a39e912333ff7dd304797983031917f5c22ae53f49ec43b72da18a119a069":{"name":"nl-li-hen-rptr-jos \u26a1","lat":50.9081,"lon":5.96211,"last_advert":"2026-05-15T22:33:00.000Z","freq":869.618,"sf":8,"bw":62.5,"cr":8},"147ee11339d9904ead410e43c6c4bf758d87d8a760da5e9e67604e4204c542ec":{"name":"NL-NBG-Test","lat":52.0771,"lon":4.81877,"last_advert":"2026-05-16T00:11:08.000Z","freq":869.618,"sf":8,"bw":62.5,"cr":8},"148bc69fdcd33c4e719ad316e21b516f938a6b1feb89c00159a002672e36c776":{"name":"repeaterstation Tinte","lat":51.8835,"lon":4.13158,"last_advert":"2026-05-15T10:43:08.000Z","freq":869.618,"sf":8,"bw":62.5,"cr":8},"148f7c2941e83a0e240470a6e6f507e736a2261b362049e0e9e2daa644b1515b":{"name":"RepetiTieterToeter ZWD","lat":51.8146,"lon":4.64988,"last_advert":"2026-05-16T00:15:25.000Z","freq":869.618,"sf":8,"bw":62.5,"cr":8},"14937666d8b43cf95e5dd38b2707a9c5cec42b320cda6b78c9ef4f0f27e954b0":{"name":"NL-ZWL-Dieze-BolleB01","lat":52.5186,"lon":6.09751,"last_advert":"2026-05-14T22:41:54.000Z","freq":869.618,"sf":7,"bw":62.5,"cr":5},"149cf8089c2f4a220d1c6be6a2da5281c71933d5ea973d50f74a931ee71b60da":{"name":"Solar RPT 2 - PD7LJ","lat":51.8927,"lon":5.44045,"last_advert":"2024-06-02T20:52:36.000Z","freq":869.618,"sf":7,"bw":62.5,"cr":5},"14a4cad137ddee3484e68bd619b12f4ca703212c12423490f5ccbb57e54446c4":{"name":"NL-FL-SWI Repeater","lat":52.5647,"lon":5.64924,"last_advert":"2026-05-10T04:12:47.000Z","freq":869.618,"sf":8,"bw":62.5,"cr":8},"14c8d86be865f712b5c1f1001a05230e09126317bc5cebda5c5b93ff72fb5062":{"name":"PB5T Aalsmeer","lat":52.2658,"lon":4.76562,"last_advert":"2024-05-16T11:52:33.000Z","freq":869.618,"sf":8,"bw":62.5,"cr":8},"14dc561266fccfcffb6cec9fa6036c8c2bb55c7b5b3fbe257649f201bef53741":{"name":"Scheppy Repeater","lat":51.1119,"lon":3.71284,"last_advert":"2026-03-16T08:10:54.000Z","freq":869.618,"sf":8,"bw":62.5,"cr":8},"14f49835e62cd122a1c1f965877c9642ffe3eb4a47cbbc2cfb1c4748a2fe7fc4":{"name":"NL-LID PDM R2","lat":52.149,"lon":4.44344,"last_advert":"1970-01-05T02:16:34.000Z","freq":869.618,"sf":8,"bw":62.5,"cr":8},"14f513da7da00dfdeab3399a148c918baac1c9a125976214e6c12797b16fb9f5":{"name":"NL-GRQ-Switchmedia.io","lat":53.2138,"lon":6.61727,"last_advert":"2026-04-22T01:04:11.000Z","freq":869.618,"sf":8,"bw":62.5,"cr":8},"151ba36e4f6b48bd92b935503d44ac30cac7e810455200372da8e335bb8b72a8":{"name":"NL-AER-Vince036-RP01","lat":52.3769,"lon":5.1816,"last_advert":"2024-06-04T13:31:48.000Z","freq":869.618,"sf":8,"bw":62.5,"cr":8},"1520178a69cd348aac6e7605e5ce1cb7255f25886214d5e7a7572c6e6f0e15ba":{"name":"DE-NRW-DO6RR/SOLAR","lat":51.3176,"lon":6.20056,"last_advert":"2026-04-30T04:03:19.000Z","freq":869.618,"sf":8,"bw":62.5,"cr":5},"152676e769b2cdecec2e0801f87cb5df7840ff10b7acd22cdc022e04fc1b4c10":{"name":"NL-JLD-NL1PRO","lat":52.8836,"lon":4.74099,"last_advert":"2026-05-13T20:55:36.000Z","freq":869.618,"sf":8,"bw":62.5,"cr":8},"1537c53c06e2c38648a37ed30712411907a32124be02200c10a90da45989cb11":{"name":"NL-RTM-9RW","lat":51.902,"lon":4.54834,"last_advert":"2024-05-16T08:52:33.000Z","freq":869.618,"sf":8,"bw":62.5,"cr":8},"153a167f8da0330fdb520ca69f055f98d768eaa4bfa20443844abef2336c6905":{"name":"NL-UT-ZIT-U178R","lat":52.1029,"lon":5.23992,"last_advert":"2026-05-16T08:53:00.000Z","freq":869.618,"sf":7,"bw":62.5,"cr":5},"15425c2cba1ce3fd863c42eb7f6e09c9b72fcc9b8af74334449c363c4c5c3ad1":{"name":"NL-NKK-Terrassen","lat":52.2108,"lon":5.4561,"last_advert":"2026-01-13T18:51:37.000Z","freq":869.618,"sf":8,"bw":62.5,"cr":8},"155557f8db949b9549ec1d88dc3a3a2cc045f498b4636d87a2df5dad161674ab":{"name":"ON6ZQ","lat":50.7058,"lon":4.39213,"last_advert":"2024-05-15T08:52:32.000Z","freq":869.618,"sf":8,"bw":62.5,"cr":8},"15837335e629b9f7b22d0a94238e0f0efb1510f16e9a8d712189673efe3dd86a":{"name":"Danzigerkade Repeater","lat":52.396,"lon":4.879,"last_advert":"2026-04-28T05:36:43.000Z","freq":869.618,"sf":8,"bw":62.5,"cr":8},"158d0f7bb8e37a444709856aea3be0b6f33f554aff0ded4628118d9a12ca123d":{"name":"Schuytgraaf Omni","lat":51.9447,"lon":5.85321,"last_advert":"2026-05-16T09:35:55.000Z","freq":869.618,"sf":7,"bw":62.5,"cr":5},"15ad52d6c256bd320ec85574ae8a73db97fe1c35d011b3c04318501c930f3f54":{"name":"Bart 078 repeater","lat":51.7751,"lon":4.66828,"last_advert":"2026-05-12T11:29:47.000Z","freq":869.618,"sf":8,"bw":62.5,"cr":8},"15b314ad3eafd7df585c16f2b8ebc03fe775a1c997a0541c00f21172829daf5a":{"name":"Parade Repeater","lat":52.0449,"lon":4.3917,"last_advert":"2026-05-16T01:54:59.000Z","freq":869.617,"sf":8,"bw":62.5,"cr":8},"15b56012c4856ed9d35fb3f7dd1a3e733984db2cfa0fec251fa6c25a3b37e528":{"name":"NL-THN-RP01","lat":51.1691,"lon":5.82785,"last_advert":"2024-05-30T06:00:04.000Z","freq":869.618,"sf":8,"bw":62.5,"cr":8},"15c6c13e6f90dd755cf85798b5230d2eb3ce078510279d15f2e3b31e6896a68c":{"name":"NL-NAM-RP01 \ud83d\udd0b \u2600\ufe0f","lat":52.7089,"lon":6.85883,"last_advert":"2026-02-01T09:33:31.000Z","freq":869.618,"sf":8,"bw":62.5,"cr":8},"15c9b064ced28dbf6800709d59b090a0af8845beeca30a6cf9cc614070e2a053":{"name":"NL-OV-ZWO-Mike","lat":52.5226,"lon":6.1079,"last_advert":"2024-05-15T08:52:31.000Z","freq":869.618,"sf":8,"bw":62.5,"cr":8},"16016774a4efffc043ea323a839f7897fdc5cc91f87665f28e4b3515ddbdee6c":{"name":"NL-GE-BEU-CON-RP1","lat":51.8621,"lon":5.76219,"last_advert":"2026-05-11T17:26:10.000Z","freq":869.618,"sf":7,"bw":62.5,"cr":5},"1608ebc899930b923979c6f3a1396dc67a299dc6e5897301b84894dcd4a12d16":{"name":"NL-OV-boskamp-pa3cps","lat":52.331,"lon":6.12846,"last_advert":"2026-05-17T12:30:29.000Z","freq":869.618,"sf":7,"bw":62.5,"cr":5},"1614f17d61bdb6e3593640d0af43e71e9b0a47812d8ac02a911e3d470334d343":{"name":"VieZe Base \u2600\ufe0f","lat":52.0223,"lon":5.09669,"last_advert":"2026-05-08T09:39:03.000Z","freq":869.618,"sf":8,"bw":62.5,"cr":8},"162c4df9e631a94bd7ab8ea14777677a1913f992a75f1fe815f2f2abc417ed8c":{"name":"DE-NW-KR-S2","lat":51.3018,"lon":6.59286,"last_advert":"2026-05-15T22:22:26.000Z","freq":869.618,"sf":8,"bw":62.5,"cr":5},"162dbc6200c36ec40b360d9edb0d352c46022b60c8fd868769e70381f5995987":{"name":"NL-Soest-rpt-Noci","lat":52.1679,"lon":5.29372,"last_advert":"2026-05-15T21:39:17.000Z","freq":869.618,"sf":8,"bw":62.5,"cr":8},"1638ad404288223c801ee8a284def04925b4cc5abccd455a8b60230977d74e38":{"name":"NL-BSL02-RP01-CastleFM","lat":51.2669,"lon":6.04289,"last_advert":"2026-05-18T16:13:20.000Z","freq":869.618,"sf":8,"bw":62.5,"cr":8},"163e5f5bb80cd130bef01400c358b331c2f8aa094081c339ba4b573be1e90250":{"name":"NL-UTR-Lombok-observer","lat":52.0913,"lon":5.08956,"last_advert":"2026-05-12T05:25:38.000Z","freq":869.618,"sf":8,"bw":62.5,"cr":8},"1652f4cf63a68ad46f103ff83ee13493b5007a9844531275eabbdb3a808aa714":{"name":"NL-2652-Enso-Repeater","lat":51.9925,"lon":4.45666,"last_advert":"2024-06-30T14:39:16.000Z","freq":869.618,"sf":8,"bw":62.5,"cr":8},"1668daa8bb571ea3c0cf885984f681a414ebddaef1ad9b42703e78716092e9ed":{"name":"NL HGLO - Omni","lat":52.2655,"lon":6.83184,"last_advert":"2026-05-15T19:19:52.000Z","freq":869.618,"sf":7,"bw":62.5,"cr":5},"169d1650731f6664341422b68af5c58f9d333b87471ce57b3e4f84ada2c91786":{"name":"NL-UTC-Leidsche Rijn","lat":52.0881,"lon":5.06632,"last_advert":"2024-07-01T14:15:02.000Z","freq":869.618,"sf":8,"bw":62.5,"cr":5},"16b92f5cfab56025ee570450b196976bb2a5d1c8a85be1036afa2cceeabc13a6":{"name":"DE-NW-E-Kunkelsberg","lat":51.3889,"lon":7.035,"last_advert":"2026-05-06T09:17:15.000Z","freq":869.618,"sf":8,"bw":62.5,"cr":8},"16dee0443bdee24aec02cacd2cb4c0db3f8e8e07b61e8d76428b13f73892100f":{"name":"D-WAT-PreinsFeld","lat":51.4537,"lon":7.14406,"last_advert":"2026-04-30T03:01:58.000Z","freq":869.618,"sf":8,"bw":62.5,"cr":8},"16e870ed3e50f6b836c37e242f95fc64a937e89a305c4c37b4cf3acaa23c02d0":{"name":"NL-GRATHEM-RP03-RAK|\u2600","lat":51.1897,"lon":5.85652,"last_advert":"2026-01-31T19:36:47.000Z","freq":869.618,"sf":8,"bw":62.5,"cr":8},"16f0aed3975cae0cd4d13a0dca456967ff975b608ae4b09096ecf7c0388c7aa4":{"name":"NL-DRE-SLE-GRW","lat":52.7786,"lon":6.79848,"last_advert":"2026-03-07T10:59:14.000Z","freq":869.618,"sf":8,"bw":62.5,"cr":8},"16ff73c57baff0e4f337ee07a9099279db71296a38ee98087b43f60cc06903f6":{"name":"NL-Ede-Backup","lat":52.0212,"lon":5.68056,"last_advert":"2024-05-24T14:26:43.000Z","freq":869.618,"sf":8,"bw":62.5,"cr":8},"1709b10b244a18affc1297756f5e35628733942635cfad1b1d5328a03db037f5":{"name":"AMS Stadionplein","lat":52.3444,"lon":4.85718,"last_advert":"2024-05-15T08:52:33.000Z","freq":869.618,"sf":8,"bw":62.5,"cr":8},"1722a0c4c45ac43cb61b0ae7bdf8889edfcc2ca4bb47cd6d121f6e0f60bada50":{"name":"RPT Norden DL4KR","lat":53.5934,"lon":7.19414,"last_advert":"2026-01-21T20:09:10.000Z","freq":869.618,"sf":8,"bw":62.5,"cr":8},"1723a99c4ed1992e08cd877fcd44c97e5fdab7387dbd1da641dcdb43e646869f":{"name":"HOTH Monheim","lat":51.0747,"lon":6.89107,"last_advert":"2026-05-15T23:33:06.000Z","freq":869.618,"sf":8,"bw":62.5,"cr":5},"173bb043c5a991f5b8e83144097abacb201ad2e2c72d7e90da2293eafd41a718":{"name":"BomenZijnRelaxed","lat":52.0982,"lon":5.11187,"last_advert":"2024-05-19T12:52:33.000Z","freq":869.618,"sf":7,"bw":62.5,"cr":5},"1740929e6e6896648b11e7caa055faef4893f82ba45c83da089aac120b00c9dc":{"name":"BE-Ward-Repeater-V4","lat":51.2662,"lon":5.1234,"last_advert":"2026-05-14T15:38:05.000Z","freq":869.618,"sf":8,"bw":62.5,"cr":8},"1752b5b8692f2a9ff4fba0ba1c3eccd565992c970e6fce17a272c64ed4ff79e3":{"name":"NL-EIJ Repeater","lat":50.7786,"lon":5.71973,"last_advert":"2025-12-27T19:43:58.000Z","freq":869.618,"sf":8,"bw":62.5,"cr":8},"176149622e2cfe10279ac18a83732b3782d587c398badc339ca76b3f1a1cf3bb":{"name":"GhostNet-KWK","lat":52.1952,"lon":4.40969,"last_advert":"2024-05-21T13:15:47.000Z","freq":869.618,"sf":8,"bw":62.5,"cr":5},"1766f1c7c1a39d8a428a1417604b66f947c2fe6b0754414d7c476bb7d46a4825":{"name":"Xeno-Solar","lat":52.0849,"lon":4.33015,"last_advert":"2026-05-18T08:00:49.000Z","freq":869.618,"sf":8,"bw":62.5,"cr":8},"177af1f150ff07e551642d0562f82247727c90cf8d56880bde9b8ffeec8d509b":{"name":"NL-AER-PARKWIJK","lat":52.3757,"lon":5.24992,"last_advert":"2026-05-13T21:21:50.000Z","freq":869.618,"sf":7,"bw":62.5,"cr":5},"177b5f80220364f52ead3e9d32dff3f58a0ca634443c44111181e0b60abce636":{"name":"DE-NW-GL-Roesrath","lat":50.9295,"lon":7.18405,"last_advert":"2026-05-13T18:41:25.000Z","freq":869.618,"sf":8,"bw":62.5,"cr":5},"177f8906962555fe3990b1a8034042158589255de56112a3319141a329345cb6":{"name":"Winschoten Repeater","lat":53.1448,"lon":7.03397,"last_advert":"2024-05-15T08:52:32.000Z","freq":867.5,"sf":11,"bw":250,"cr":5},"1796b8f229eda4def4d66741fa7c9f5f36545920db8e0636930e8219d8ede316":{"name":"nl_nij_HC_RakOpHetDak-s","lat":51.7886,"lon":5.85326,"last_advert":"2026-05-15T10:13:06.000Z","freq":869.618,"sf":7,"bw":62.5,"cr":5},"17a8fba17a90111d546f566b39f6bb02338f4d9f03111977aa98a947aee43c43":{"name":"Lunet\ud83e\udd65","lat":52.0608,"lon":5.14191,"last_advert":"2026-05-09T08:57:41.000Z","freq":869.618,"sf":8,"bw":62.5,"cr":8},"17ecadbdd1b08fd152663e253a22d879f9520758b9bcc513c5f19284f73a0118":{"name":"NL-LEM-LT-RP01","lat":52.8435,"lon":5.71353,"last_advert":"2024-06-24T20:52:34.000Z","freq":869.618,"sf":8,"bw":62.5,"cr":8},"1814a76322f2ecb374549386040e20f9be9e11b0e13e1b00aff184983085f1c8":{"name":"Zoetermeer Repeater","lat":52.0566,"lon":4.50479,"last_advert":"2026-05-15T15:30:15.000Z","freq":869.618,"sf":8,"bw":62.5,"cr":8},"184706b7f79e421d9af2825908fe67ca579055aca8b7b481325e696832c45acc":{"name":"Peter_Pan","lat":52.3465,"lon":4.80928,"last_advert":"2024-08-19T13:53:25.000Z","freq":869.618,"sf":8,"bw":62.5,"cr":8},"1847350b6c0c1bb68fdf106bcab3aae88ffccb97751e94009212bf2469bc272b":{"name":"PE9DX Immanuel repeater","lat":53.145,"lon":7.03397,"last_advert":"2026-05-03T13:18:00.000Z","freq":869.618,"sf":8,"bw":62.5,"cr":8},"1861bf54e3a8492383676a142070e77859f93490273e1f400fa4122a57fd97d3":{"name":"NL-DHR-SOLREP-MAZ","lat":52.9298,"lon":4.74749,"last_advert":"2024-05-28T21:52:33.000Z","freq":869.618,"sf":8,"bw":62.5,"cr":8},"1876ee7699d2e8e517d036ec21dd77879fe20bacaf632eca08e416368eccd9be":{"name":"Scheemda-180\u00b0\ud83d\uddfc","lat":53.1716,"lon":6.97946,"last_advert":"2024-05-15T23:52:33.000Z","freq":869.618,"sf":7,"bw":62.5,"cr":5},"18a63faef4019beed04ffdd3d17265ba4b9eebd0dfb0b2c494ec505b0320599d":{"name":"Sab Repeater","lat":50.8665,"lon":4.30332,"last_advert":"2024-08-14T07:55:25.000Z","freq":869.617,"sf":8,"bw":62.5,"cr":8},"18b6454bcfa1c1a90ee4564affea594b477352a3b6585fd942358480fff500d1":{"name":"AMF_Vathorst_CTR_1","lat":52.1952,"lon":5.40497,"last_advert":"2024-08-08T01:55:19.000Z","freq":869.618,"sf":8,"bw":62.5,"cr":8},"18c480128fd119b5ea7e30cd23336b280c7ca299344344cf7ccf8d67721c75e0":{"name":"Stooplaan Dordrecht","lat":51.8117,"lon":4.68117,"last_advert":"2024-05-24T20:52:33.000Z","freq":869.618,"sf":8,"bw":62.5,"cr":8},"18cb48304d5ec8ad9e28b72f8f104d5d375625ecfe681bdffe981685b5a1d067":{"name":"Moerbrugge Yo!","lat":51.1628,"lon":3.26251,"last_advert":"2026-05-17T17:12:19.000Z","freq":869.618,"sf":8,"bw":62.5,"cr":8},"18e9e8fff4ffb446589e037e2b67b707f2c2a325c44385deea1d6b1d56b75f9a":{"name":"Erasmuspark Repeater","lat":52.3755,"lon":4.85288,"last_advert":"2026-05-05T18:03:07.000Z","freq":869.618,"sf":8,"bw":62.5,"cr":8},"18f2628e9b35c0399c2509cac3d0e0ce464bfbee6d97cec709529d1b19b9ed8a":{"name":"NL-AMS-H'plein repeater","lat":52.385,"lon":4.88317,"last_advert":"2024-07-07T01:55:18.000Z","freq":869.618,"sf":8,"bw":62.5,"cr":8},"18f7931be5176a431603b420753b04179152146c801f68acb6235a02815c60af":{"name":"RRY01\u2622\ufe0fSolar","lat":51.1605,"lon":3.31887,"last_advert":"2026-05-13T20:04:47.000Z","freq":869.618,"sf":8,"bw":62.5,"cr":8},"18fcbcfc986ad8b37737b29b48362904f970a22892b3c14537ca531ce1ec5d4e":{"name":"Bommern-Westlink","lat":51.4166,"lon":7.33841,"last_advert":"2024-06-16T08:52:37.000Z","freq":869.618,"sf":8,"bw":62.5,"cr":5},"190c8172b9d90d8f3060703f2cd734b4b36049c3df97ebcb139e267de2a3e52c":{"name":"NL-FL-RTN-Hv4-T1","lat":52.5005,"lon":5.49642,"last_advert":"2026-05-09T02:54:21.000Z","freq":869.618,"sf":8,"bw":62.5,"cr":8},"1915e3dca2b8a0a8967465c5200ca800495a68686531c82284241e1bf3516d2e":{"name":"NL-ZEM-3 ZonHummel","lat":52.0064,"lon":6.34356,"last_advert":"2026-05-11T12:24:19.000Z","freq":869.618,"sf":7,"bw":62.5,"cr":5},"191f82a2cb7145379e7bd9f98010d2c45779a2a173985262d6db3f74ffd50843":{"name":"NL-EMM Fruitmans","lat":52.7449,"lon":6.89321,"last_advert":"2026-05-07T09:22:24.000Z","freq":869.618,"sf":8,"bw":62.5,"cr":8},"192a7280a81db99775de0ac113b3e4ca54e61e3ad062305e8410604b44bffbec":{"name":"Pixelbar.nl","lat":51.9031,"lon":4.44983,"last_advert":"2024-05-15T08:52:32.000Z","freq":869.618,"sf":7,"bw":62.5,"cr":5},"192aa66cfcc1184a215f1f703d74775c527af0e4b85cd19439ad36dda7a2ce01":{"name":"NL-ZIT-Schaperlaan-Obse","lat":52.1003,"lon":5.24098,"last_advert":"2026-05-12T16:33:08.000Z","freq":869.618,"sf":7,"bw":62.5,"cr":5},"192b47c003488fbaecd343d3913d71dc6b2d3eb8568fb5d2f19d1a33d231e381":{"name":"NL-NB-VAL_Pegasus-REP","lat":51.3522,"lon":5.4803,"last_advert":"2026-04-22T07:01:00.000Z","freq":869.618,"sf":8,"bw":62.5,"cr":5},"19369f0715a3b2da842f044f1deec072fd9c9a78ef825e74e04a9ba2b5aa34dd":{"name":"DE-NW-SU-Villiprott","lat":50.6431,"lon":7.08733,"last_advert":"2026-05-16T09:16:30.000Z","freq":869.618,"sf":8,"bw":62.5,"cr":5},"193abcc09c0ac5dd515d6d25ad975cf854487dc349df335c7ae7fee02bf2e7ea":{"name":"NL-ZWL-MeshJoeWindeshei","lat":52.5012,"lon":6.07931,"last_advert":"2026-04-23T01:59:06.000Z","freq":869.618,"sf":8,"bw":62.5,"cr":8},"19542ceefff12d89e3f695d610b79e4726a6ec866aa0e49151f1154ada27132e":{"name":"NL-GE Oerdonk RP1 \ud83d\udd0b","lat":51.8671,"lon":5.75608,"last_advert":"2026-05-06T16:06:42.000Z","freq":869.618,"sf":8,"bw":62.5,"cr":8},"1958209a79e92313ff4c6a02fd02b9946079cf94b97bd4b5308e8590b8fe0b18":{"name":"BEV-Muppetshow-2-REP","lat":52.4935,"lon":4.68658,"last_advert":"2026-04-26T05:01:04.000Z","freq":869.618,"sf":8,"bw":62.5,"cr":8},"199a31c5e612a07e108e8f2c83a34f229ab2fda9d0a8dc16d01faca4eb8848b5":{"name":"NL-AME-SR-r-001\u2600\ufe0f","lat":52.1371,"lon":5.37428,"last_advert":"2024-05-17T10:52:33.000Z","freq":869.618,"sf":7,"bw":62.5,"cr":5},"19c3df1f0cbed9f7d9545ce5e934ca68f281e043a532f51aa98a01fb2184f2f6":{"name":"Repeater HV4_9050","lat":51.0451,"lon":3.75851,"last_advert":"2026-05-16T07:24:12.000Z","freq":869.618,"sf":8,"bw":62.5,"cr":8},"1a1acc0c715714855c73386677379dec105c7f9b6c907c3235cd34eac29464d3":{"name":"BE-MGU-RP02 | ON4IA","lat":51.0831,"lon":5.57665,"last_advert":"2026-05-17T10:50:13.000Z","freq":869.618,"sf":8,"bw":62.5,"cr":8},"1a1c2c16d1a2ca5ace339df7944313e04b41118cb0a1cf77b80aed12b4cf9e4e":{"name":"NL-IJI-3402-RPT1","lat":52.0306,"lon":5.04287,"last_advert":"2026-05-16T09:15:43.000Z","freq":869.618,"sf":7,"bw":62.5,"cr":5},"1a2b3c7d8ce5aa984417b5c6c8dafd4c3fbcdcf47b9b0bf8cc58b45ac0079ffb":{"name":"NL-AER-RP01-FAUNABUURT","lat":52.384,"lon":5.27067,"last_advert":"2026-05-11T09:34:34.000Z","freq":869.618,"sf":7,"bw":62.5,"cr":5},"1a2e9ec5299b6fbc10083f07b6c2c182e1ce75c9ba66a912701f367d24f94b05":{"name":"HLAC JO30CU Repeater","lat":50.8657,"lon":6.21406,"last_advert":"2026-05-11T07:34:52.000Z","freq":869.618,"sf":8,"bw":62.5,"cr":8},"1a32bd5777c9293200c210befb4ef9cf7339a306fbb50b6fce927a0bf224ec9b":{"name":"Alkmaar Repeater\ud83d\udd0b","lat":52.6653,"lon":4.76031,"last_advert":"2026-05-13T03:45:31.000Z","freq":869.618,"sf":8,"bw":62.5,"cr":8},"1a3d931dc17935ceb0f3e2888c6f7afea223584f4f1603a131ff35913972be1f":{"name":"EES - RPH2","lat":51.203,"lon":3.48613,"last_advert":"2025-12-07T14:08:59.000Z","freq":869.618,"sf":8,"bw":62.5,"cr":8},"1a443db08604fe014b24cd97264a999d90061bf72ebe2337eba832c6e16c3a4e":{"name":"NL-2645-RP","lat":52.0094,"lon":4.39627,"last_advert":"2026-04-24T06:18:44.000Z","freq":869.618,"sf":8,"bw":62.5,"cr":8},"1a79aa73151af97a5b477dcb3ed67a6e174b70bb3e722bacc9cfac3df3d72a7f":{"name":"NL-ZTM-OOSTERHEEM\u2600\ufe0f","lat":52.0548,"lon":4.54277,"last_advert":"2026-05-15T10:31:33.000Z","freq":869.618,"sf":8,"bw":62.5,"cr":8},"1a9bfd43c6415de03bbfa07f4fc514e5245eb3a4c09d412394504f8e92889f39":{"name":"E-45147-AWO-HQ","lat":51.4384,"lon":6.99051,"last_advert":"2026-05-16T07:42:36.000Z","freq":869.618,"sf":8,"bw":62.5,"cr":5},"1aac8ec6ec82198065dd70a3653399cfed5533280a2c2719087a2a6d0e4a9260":{"name":"NL-DRA-OOST-01","lat":53.1076,"lon":6.12814,"last_advert":"2026-05-13T16:14:30.000Z","freq":869.618,"sf":7,"bw":62.5,"cr":5},"1ab3b6345a147f55ad424599e55a5a6500349ed5d5e0f18f7f6e9d4e96b7055f":{"name":"NL-Westkust_BdF","lat":51.5291,"lon":3.437,"last_advert":"2026-03-23T22:20:47.000Z","freq":869.618,"sf":8,"bw":62.5,"cr":8},"1ac8a3d54e5b7ee446f0cc9ab7529419b02e535651389bfe7bfbb2cae8c41d5f":{"name":"NL RUK Kerkbrink","lat":52.1719,"lon":5.00352,"last_advert":"2026-05-13T10:36:42.000Z","freq":869.618,"sf":7,"bw":62.5,"cr":5},"1af75839319a628b900c40f9c73050e38acda64547428fe99085ca78fde42d8e":{"name":"Leiden Schrijversbuur","lat":52.1556,"lon":4.47601,"last_advert":"2026-05-16T04:38:21.000Z","freq":869.618,"sf":8,"bw":62.5,"cr":8},"1b21db4305223734e5053b9c090e211c7270fe308b2d7b1017277b5d60de62f3":{"name":"NL-AMS Olympic","lat":52.345,"lon":4.85457,"last_advert":"2026-05-05T04:14:25.000Z","freq":869.618,"sf":8,"bw":62.5,"cr":8},"1b2d7956574856aad9d449d143f956896ceb058bb437d4ad7b1777a1d234af42":{"name":"DE-NRW-KR-RPT8","lat":51.3257,"lon":6.55019,"last_advert":"2026-05-16T09:23:22.000Z","freq":869.618,"sf":8,"bw":62.5,"cr":8},"1b415bb6b2f9c6d84c872d53ca395ca6721987057d77c368618a0a5af71b87c7":{"name":"NL-HVE-RP-OudZuid\u2600\ufe0f","lat":52.7678,"lon":6.23478,"last_advert":"2026-04-28T17:39:15.000Z","freq":869.618,"sf":8,"bw":62.5,"cr":8},"1b41cc4a6952897ee969c1d20afceecfb050865bc1701e06c67a824560d4d92b":{"name":"NL-QDS RamelerRep.Solar","lat":52.3703,"lon":6.24597,"last_advert":"2026-05-10T06:43:04.000Z","freq":869.618,"sf":8,"bw":62.5,"cr":8},"1b7c5335b5ba608e5a2af7e65024c98439e3f2f6008123e611166aecbfd79475":{"name":"nl-ge-wol-001","lat":52.0051,"lon":5.79928,"last_advert":"2026-04-22T15:28:44.000Z","freq":869.618,"sf":8,"bw":62.5,"cr":8},"1b8b8d4edb20a06544d6b39f3fbd8cdc7bfac9f75065a7b48333726b01da301c":{"name":"NL_AME_VH_NRF_V2\ud83d\udd0b\u2600","lat":52.1928,"lon":5.42101,"last_advert":"2026-05-14T19:28:55.000Z","freq":869.618,"sf":8,"bw":62.5,"cr":8},"1b8c51eb08332b502ce9573a6540c3219f77842e08e677a3e587cc61c131a37c":{"name":"Bauerbahn_Yagi2DUS","lat":51.1945,"lon":6.6426,"last_advert":"2024-06-24T23:42:17.000Z","freq":869.618,"sf":8,"bw":62.5,"cr":5},"1b8f111f7eae9d775d0067a4f23b544eaaca1c5a5b666f364605de509acd8b5b":{"name":"NL-Rhenoy-Repeater-01","lat":51.8824,"lon":5.15366,"last_advert":"2024-05-15T20:52:31.000Z","freq":869.618,"sf":8,"bw":62.5,"cr":8},"1b93d75a07795b24224be9a63299854c9561b874c635dc2fb22fa94d52c194eb":{"name":"D-BO-Linden","lat":51.4296,"lon":7.1659,"last_advert":"2026-05-14T00:02:36.000Z","freq":869.618,"sf":8,"bw":62.5,"cr":5},"1ba8e2d0b9a58633d883bcb9078489b88be52c67e24fe0b45eea32050cccf215":{"name":"NLD-DEV-RPT-7413","lat":52.2581,"lon":6.16554,"last_advert":"2026-05-12T14:25:23.000Z","freq":869.618,"sf":8,"bw":62.5,"cr":8},"1bb23bb7505597774f06794db6c5b954e1d6d8c66d58bfc8a6486601eea082bb":{"name":"NL-DRN-PA3CZX001","lat":51.6835,"lon":5.12961,"last_advert":"2024-05-22T08:52:32.000Z","freq":869.618,"sf":8,"bw":62.5,"cr":8},"1bb36586e1aa379838c48dd2988397349f9cc7187c44ab95f40ceb7bca844d78":{"name":"4631 IBB \u2600\ufe0f\ud83d\udd0b Rep","lat":52.0793,"lon":5.13233,"last_advert":"2026-05-09T07:44:48.000Z","freq":869.618,"sf":8,"bw":62.5,"cr":8},"1bbfb4c56514a9c3f41c8dbef61dc567f91da4d79647e83091b40f7c822d8b3c":{"name":"NL-AER-Striph Test","lat":52.406,"lon":5.31773,"last_advert":"2026-04-26T07:58:00.000Z","freq":869.618,"sf":8,"bw":62.5,"cr":8},"1bc8194ca913784558d3242966b48d71afa668e1d2b6c0fa4b7c8c575aa3354b":{"name":"NL-OV-WESTHAAR","lat":52.4668,"lon":6.62436,"last_advert":"2024-05-25T15:07:46.000Z","freq":869.618,"sf":8,"bw":62.5,"cr":8},"1bca60f6b1bdede7e66cfc7f90771668d2c77066fe1f41b70c6a3aa2c4273563":{"name":"Ring","lat":51.0528,"lon":4.10778,"last_advert":"2026-05-14T14:13:57.000Z","freq":869.618,"sf":8,"bw":62.5,"cr":8},"1bd901dedb63674b39208a96f433f826ff12c76af2784ae8b14e14c26311ff31":{"name":"NL-NB-VAL PA3FAT","lat":51.3543,"lon":5.4612,"last_advert":"2026-05-01T17:12:51.000Z","freq":869.618,"sf":8,"bw":62.5,"cr":8},"1bfdec94c11b8b7fd93cf686db7b5de20ba192e5bba9736add91d1d3589472a1":{"name":"NL-HST-OMNI-SOLAR","lat":52.335,"lon":4.61867,"last_advert":"2026-05-14T22:07:05.000Z","freq":869.618,"sf":7,"bw":62.5,"cr":5},"1c20ad71c9a41d5efe4cfc536b470ec727912c9899a38c4b516f7635e2fbd11e":{"name":"NL-VLM-RP02","lat":51.7027,"lon":5.21282,"last_advert":"1970-01-04T16:18:53.000Z","freq":869.618,"sf":8,"bw":62.5,"cr":8},"1c37dfd9fc3926e4e4bc990b080336e1e2f84de7b9ca099c62367076b01b2ce1":{"name":"RPT-CAS-Nord","lat":51.5946,"lon":7.30849,"last_advert":"2026-05-16T04:41:19.000Z","freq":869.618,"sf":8,"bw":62.5,"cr":5},"1c478745c8f976553384d6434b84e375b51895c8acdfbf5dd75f650658e557ac":{"name":"NL-RSD-BURG","lat":51.5326,"lon":4.47433,"last_advert":"2026-04-29T23:56:19.000Z","freq":869.618,"sf":8,"bw":62.5,"cr":8},"1c4c71289495d13a9d9939b60e7125bebb28396b9349007ab7e9c37d7d0feed9":{"name":"NL-DR-COE-RS","lat":52.6656,"lon":6.73768,"last_advert":"2026-05-04T18:05:52.000Z","freq":869.618,"sf":8,"bw":62.5,"cr":8},"1c5ed26fcdcf4b65f892a4278543864e9f7ac8a1a678cc3343b0d2061df64709":{"name":"NL-AMS-Repeater-AG","lat":52.3673,"lon":4.9071,"last_advert":"2026-05-07T02:17:51.000Z","freq":869.618,"sf":8,"bw":62.5,"cr":8},"1c6beb0262f166142ce26a3282d67bdecc91962454cd095719fd3cc4573b9a72":{"name":"Solarveen Repeater","lat":52.3057,"lon":4.86184,"last_advert":"2026-05-18T08:01:58.000Z","freq":869.618,"sf":8,"bw":62.5,"cr":8},"1c736a44d642d31e21f6f3d1990f0907f7cf40157411fc4138d2964dddace378":{"name":"\ud83c\udde7\ud83c\uddeaMaasmechelen","lat":50.9771,"lon":5.6639,"last_advert":"2026-05-15T23:37:09.000Z","freq":869.618,"sf":8,"bw":62.5,"cr":8},"1c7b40ae83f4adcb65284e5b2cd05b7c9d36b8545152119d5068faa1f285e778":{"name":"swnet Repeater","lat":51.4396,"lon":5.44213,"last_advert":"2024-08-30T09:57:08.000Z","freq":869.618,"sf":8,"bw":62.5,"cr":8},"1c986107bb60c38e2225797436253308e020ad426a67b3e4f7a8ea5e03b7a297":{"name":"DRK-NW-D-REP-01","lat":51.1144,"lon":6.89927,"last_advert":"2026-04-17T12:43:15.000Z","freq":869.618,"sf":8,"bw":62.5,"cr":5},"1c9919f42d1d11e2900e9a2dfa2457f1452ca5fdb6681bef52fca9754bf86454":{"name":"D-CGN MSE2 Sola","lat":50.9108,"lon":6.98953,"last_advert":"2026-03-28T14:58:19.000Z","freq":869.618,"sf":8,"bw":62.5,"cr":5},"1c992ea6d3165df2f211f9580b336e7b8005c206bb34ac92a8ebd4ffb611baa9":{"name":"NL-SPI-RP02","lat":51.8474,"lon":4.34029,"last_advert":"2026-04-16T15:30:50.000Z","freq":869.618,"sf":8,"bw":62.5,"cr":8},"1c9e276c01852f719f941e5e141192fe1e5e65894a179e467cc19c453c49a14f":{"name":"Delft Repeater N","lat":52.0057,"lon":4.33377,"last_advert":"2026-05-16T10:10:22.000Z","freq":869.618,"sf":7,"bw":62.5,"cr":5},"1caf7560de8571678cac15e0a8ce95c107a457b354e35cae10405a21e8d2cd1f":{"name":"Meshterious RPR","lat":52.9368,"lon":4.78057,"last_advert":"2024-07-28T20:50:49.000Z","freq":869.618,"sf":8,"bw":62.5,"cr":8},"1cbab5d3a4c618f6199224481381836bd72042e24e572d370985cfd0fddfac2a":{"name":"NL-ZWO-SCHUERENMARKE","lat":52.4746,"lon":6.10858,"last_advert":"2026-05-10T09:38:19.000Z","freq":869.618,"sf":8,"bw":62.5,"cr":8},"1cbce06c3fe2175dc5e90171a8f9b59665b086f54e5b0c0c79315b1186996227":{"name":"NL_HOE A1 JBF","lat":52.1647,"lon":5.49101,"last_advert":"2024-07-24T13:55:19.000Z","freq":869.618,"sf":8,"bw":62.5,"cr":8},"1ce4cd0f12cf32d5b6bb582ea128dacf7b4159c6c66c32005f77ce965ad71f32":{"name":"NL LOS_Losser _171A","lat":52.2564,"lon":6.9993,"last_advert":"2026-03-13T17:02:00.000Z","freq":869.618,"sf":8,"bw":62.5,"cr":8},"1d00bc13dd27da082365c3da4e2a555947cdf9e6442d25b4031cd87639f3f8e1":{"name":"CBR-RPT-GNT03","lat":51.0741,"lon":3.72327,"last_advert":"2026-05-16T07:49:46.000Z","freq":869.618,"sf":8,"bw":62.5,"cr":8},"1d039378018c96f25649bbd898c50e33ad885ba6553940428a2a4363150f8eb3":{"name":"DE-NW-E-DJ7FG-Repeater","lat":51.4864,"lon":6.92232,"last_advert":"2024-05-17T08:52:35.000Z","freq":869.618,"sf":8,"bw":62.5,"cr":5},"1d2b232b09e9dc634f8a9a922e4dbd61b554c7b343985ab17c9533aa4afae5cc":{"name":"D-CAS-Mitte","lat":51.5524,"lon":7.30746,"last_advert":"2026-05-17T12:08:25.000Z","freq":869.618,"sf":8,"bw":62.5,"cr":5},"1d31dbe7cf030622986febcb1be0962ee70c170084aad8c63bdf2f89990eed57":{"name":"Infinity-LOIC-RPT\u26a1","lat":52.4589,"lon":5.84144,"last_advert":"2026-05-16T08:37:56.000Z","freq":869.618,"sf":7,"bw":62.5,"cr":5},"1d344969b5020c95a416ed2242ed15b7d6eb1da4e46061c0329301ce8aa47408":{"name":"Florenweb Base","lat":52.03,"lon":4.66109,"last_advert":"2024-06-13T10:13:06.000Z","freq":869.618,"sf":8,"bw":62.5,"cr":8},"1d4675e96732625d044871febfad42c4083738730c9b5fe5d4125bde2382784d":{"name":"nl-flv-alm-lit-01","lat":52.3578,"lon":5.17773,"last_advert":"2026-04-29T11:34:58.000Z","freq":869.618,"sf":8,"bw":62.5,"cr":8},"1d557b842716d7310fc90a6d5a6d44460678346c898882c748057d1bd86d42a5":{"name":"NL OGE Oudenhof \u2600\ufe0f","lat":52.1903,"lon":4.47289,"last_advert":"2026-05-15T09:59:24.000Z","freq":869.618,"sf":7,"bw":62.5,"cr":5},"1d58b4933ab8155431037164e9d479a85d52ee077e816981d1e9c48bea8f2918":{"name":"0341-vzcs-003 Ermelo","lat":52.2996,"lon":5.62384,"last_advert":"2025-11-01T12:19:06.000Z","freq":869.618,"sf":8,"bw":62.5,"cr":8},"1d5ddb7039ad930a80bf6be9f6099cd137e1623afd3fb6bd64ca080fb7477584":{"name":"NL-FRL-HvEYagi","lat":52.8776,"lon":5.81096,"last_advert":"2026-03-08T01:22:35.000Z","freq":869.618,"sf":7,"bw":62.5,"cr":5},"1d5fa1ac7a1b7716d18b39e424ec94c9a626bd13f5ab56fc43a820ec7232bc5a":{"name":"DE-NW-WOLF-NET","lat":51.2372,"lon":6.79268,"last_advert":"2024-05-17T20:52:32.000Z","freq":869.618,"sf":8,"bw":62.5,"cr":5},"1d99312cea413cf6cf6834dbe5be68c63900fa518af1c8650e237ea5d5996a0c":{"name":"NL-AER-Stripheldenbuurt","lat":52.4064,"lon":5.31705,"last_advert":"2026-05-15T14:44:30.000Z","freq":869.618,"sf":7,"bw":62.5,"cr":5},"1d9f49c3c2c96e09fcce907d58907e5a18a96d784d45e372d1de7172f3ed0bd8":{"name":"NL-EMN-ECHO","lat":52.7443,"lon":6.90036,"last_advert":"2024-05-21T20:52:32.000Z","freq":869.618,"sf":8,"bw":62.5,"cr":8},"1dabe831c200912b39232b8be23199847c05e954fc330c1a1f3e41ec66318010":{"name":"NL-WAD-GROENSWAARD","lat":52.0487,"lon":4.64539,"last_advert":"2026-04-28T10:26:57.000Z","freq":869.618,"sf":8,"bw":62.5,"cr":8},"1dac22d321e2b193dfbf90206b7b1119cf1b5adcd0584a796d82bd577ae9be11":{"name":"BE-BAR-3RV-EBP-01","lat":51.0805,"lon":4.67221,"last_advert":"2026-05-16T08:01:47.000Z","freq":869.618,"sf":8,"bw":62.5,"cr":8},"1db94c790ed3592cc4fe226de55255b613503b278ec2c7d3dd6d212a9bb0d338":{"name":"DE-NW-SU Bornheim Solar","lat":50.7523,"lon":6.98936,"last_advert":"2026-05-15T13:29:13.000Z","freq":869.618,"sf":8,"bw":62.5,"cr":5},"1dbbe064ebdbd700e18d4d2f849721e237feb9e2ecb75646ae91c2bb5592bddb":{"name":"NL-BDD-RPT-1 \ud83c\udfe0\ud83d\udd0b","lat":51.2411,"lon":5.57007,"last_advert":"2026-05-16T04:10:45.000Z","freq":869.618,"sf":8,"bw":62.5,"cr":8},"1dc2f7ed344741507768b060229844d4440bb35d8854e234d86c0bb02f908205":{"name":"Relais Borghorst","lat":52.1266,"lon":7.39475,"last_advert":"2024-06-28T20:52:35.000Z","freq":869.618,"sf":7,"bw":62.5,"cr":5},"1dcab0f6658b2bc44dca1f8a229fdc2b09cd3a2f21520771cf2a076fdc37e827":{"name":"HCRepeater","lat":51.7848,"lon":6.06622,"last_advert":"2026-05-10T05:09:53.000Z","freq":869.618,"sf":7,"bw":62.5,"cr":5},"1dcf96d108293a3b67999e45510f561a898e8d4b3dba1854a3eeda3e2f983d35":{"name":"Ixelles Solar Repeater","lat":50.8361,"lon":4.36652,"last_advert":"2024-06-20T20:52:34.000Z","freq":869.617,"sf":8,"bw":62.5,"cr":8},"1debec6f87d99bef753c7ba46d5b39e800fcdcf632ccaeccc414ad66b18bd2d9":{"name":"RRY48_Rep_Landegem","lat":51.0684,"lon":3.57855,"last_advert":"2026-05-15T16:24:34.000Z","freq":869.618,"sf":8,"bw":62.5,"cr":8},"1df13e03f03c4f9545d90d5f1e3bd6422c663b6b98164f96472c11132eae0244":{"name":"NL-ENS-WEGA51","lat":52.2138,"lon":6.88056,"last_advert":"2026-05-14T21:46:14.000Z","freq":869.617,"sf":8,"bw":62.5,"cr":8},"1e0db9c9a5f8f323cbcb416d0c1becf0be1d20a3b53284da51bb48e44db256b7":{"name":"NL-HEN-jcleroidupc","lat":50.8782,"lon":5.99479,"last_advert":"2026-04-24T12:34:32.000Z","freq":869.618,"sf":8,"bw":62.5,"cr":8},"1e365ff727fd7b0f6b225184e8ae63796ff67563e3e58725efd20da9865abf5e":{"name":"BE-2990-GOOREIND-TOM","lat":51.3574,"lon":4.54757,"last_advert":"2026-05-02T01:09:59.000Z","freq":869.618,"sf":8,"bw":62.5,"cr":8},"1e4de0d86b728b69e00f6f72300e34e57b4f34b9333bbdd1d70146cc2a335448":{"name":"NL-RTD-Zuid ICMP","lat":51.8767,"lon":4.49596,"last_advert":"2026-04-20T19:51:18.000Z","freq":869.618,"sf":8,"bw":62.5,"cr":8},"1e581b66a82a7012abac6c1a2236ccbeac135c1d1dccd8f7910ae9031726bc42":{"name":"MeshRPT-Kampen-DV1","lat":52.545,"lon":5.90024,"last_advert":"2026-04-29T07:27:17.000Z","freq":869.618,"sf":8,"bw":62.5,"cr":8},"1e741d6aaa6d47d7a8d3ea8618d340b9e015a8a0b10ac7e947320cfc5630ee06":{"name":"NL-SLS-OOSTBURG-RPT-01","lat":51.327,"lon":3.48299,"last_advert":"2024-07-20T16:55:21.000Z","freq":869.618,"sf":8,"bw":62.5,"cr":8},"1e84cedeba9dc84f90ffcaf470152b08f9d313f7c0840e2f43d2fc538ec07107":{"name":"NL-VNLO-RPT\ud83d\udc38","lat":51.379,"lon":6.1879,"last_advert":"2026-03-11T12:40:44.000Z","freq":869.618,"sf":8,"bw":62.5,"cr":8},"1e89c5cb115c29da781de52739b1a443bbf7cef1191a1760a8f0e852b3f392bd":{"name":"NL-LDD-RobCo-00\ud83d\udd0b","lat":52.1481,"lon":4.53219,"last_advert":"2026-05-13T16:44:22.000Z","freq":869.618,"sf":8,"bw":62.5,"cr":8},"1e8c1d9cf5b358ea2cda2eb1c2cd924044aa004296ce937790a03f0987a20b53":{"name":"DAGOBAH DUS Hellerhof","lat":51.1318,"lon":6.91526,"last_advert":"2024-05-17T08:52:33.000Z","freq":869.618,"sf":8,"bw":62.5,"cr":5},"1e9582e01b2216e2338f25ce752c741ff0dc104793e9e437ef6de2463c1aeecd":{"name":"LM Repeater 1","lat":51.9234,"lon":5.49024,"last_advert":"2024-06-23T08:48:25.000Z","freq":869.618,"sf":7,"bw":62.5,"cr":5},"1eb3beba439527992fc3b130bc0231db469bf0857e167e417aa9a0c01f0c1c1c":{"name":"DE-DU-NW-Innenhafen GP","lat":51.4411,"lon":6.77874,"last_advert":"2026-05-15T20:44:35.000Z","freq":869.618,"sf":8,"bw":62.5,"cr":5},"1ebb456eaa391396ee7a71879347dbc45dbc2277a39ac2d628e59f5f7e01e27d":{"name":"DO-VLD-SOL-REP1","lat":51.9164,"lon":4.35159,"last_advert":"2026-05-02T01:11:15.000Z","freq":869.618,"sf":8,"bw":62.5,"cr":8},"1f090bc345a22ffcea47285bed1488966c6eda472ec081f0f5af15a935b26435":{"name":"NL-NWS-RP02","lat":51.0364,"lon":5.86938,"last_advert":"2026-05-16T10:52:28.000Z","freq":869.618,"sf":8,"bw":62.5,"cr":8},"1f0a9d68ddf4dea056668d46b956c900079d2475430e24360a09ab23e2928ea0":{"name":"NL-HAG-Lveen RPT2 ","lat":52.0644,"lon":4.40394,"last_advert":"2026-05-16T04:52:43.000Z","freq":869.618,"sf":7,"bw":62.5,"cr":5},"1f11105f49a4ce63c364931d08dd15c37c5a5b4d29715983d6854bd79f685ab2":{"name":"NL-HVS-MIERIS-RPT","lat":52.2139,"lon":5.17604,"last_advert":"2024-05-19T12:52:35.000Z","freq":869.618,"sf":7,"bw":62.5,"cr":5},"1f1d0c9e8e977cfb899ec76bec9af71e2a6c3cc99e9874dd42f53ba6e590a44a":{"name":"NL-ZH-RTM-RPT PA4F","lat":51.9314,"lon":4.54445,"last_advert":"2026-05-11T13:22:49.000Z","freq":869.618,"sf":8,"bw":62.5,"cr":8},"1f227f20673c6f71bbc39cf14e12c33853f6a21a2939e2669c65db9940e1affa":{"name":"nl-ov-wid-G2","lat":52.3594,"lon":6.5814,"last_advert":"2026-05-09T15:35:52.000Z","freq":869.618,"sf":8,"bw":62.5,"cr":5},"1f60e78102cbf4b08cd5d4f249766eaf3ed95e9d3914fbc540b1c70c70e486e4":{"name":"NL-GR-KRET-4","lat":53.205,"lon":6.36019,"last_advert":"2026-05-08T19:21:35.000Z","freq":869.618,"sf":8,"bw":62.5,"cr":8},"1f6844d7e2adf148740b6ccf17646e5020550f35e901c7ee1a3b791c1911c2f6":{"name":"NL-HTB-Plantsome","lat":51.6923,"lon":5.26649,"last_advert":"2026-05-09T03:56:27.000Z","freq":869.618,"sf":8,"bw":62.5,"cr":8},"1f7f3cd709b927713adbe3a13d088163ae8c06b48cedcfd4d383bb0058b68c96":{"name":"Nedap Nijmegen","lat":51.8252,"lon":5.79551,"last_advert":"2025-12-19T09:14:39.000Z","freq":869.618,"sf":8,"bw":62.5,"cr":8},"1fd702387cfc143fd3b7c5181b318320c73decf873bb0e91a24cf9452253e718":{"name":"NL LID (Chef-1) \u2600\ufe0f","lat":52.1465,"lon":4.49716,"last_advert":"2024-07-14T08:52:32.000Z","freq":869.618,"sf":8,"bw":62.5,"cr":8},"1fd8271a7543a07bf84283b9feca16f6738b529d0ebe62015b42aa6ee18315ad":{"name":"DE-NW-ME-VBT10","lat":51.3333,"lon":7.04852,"last_advert":"2026-05-17T11:53:55.000Z","freq":869.618,"sf":8,"bw":62.5,"cr":5},"1feda4faeb8d6c2b1d6b2d1fc61f27ef18563a93d4e96d63e671d14b2c7ea4a2":{"name":"NL-NB-HTB-ENGR01\u2600\ufe0f\ufffd","lat":51.7225,"lon":5.26887,"last_advert":"2026-05-14T03:21:30.000Z","freq":869.618,"sf":7,"bw":62.5,"cr":5},"1fee962b185275cce174e71614586ffd80a2474ecb2046249129c8a3a01404e4":{"name":"Bleiswijk Repeater","lat":52.0097,"lon":4.53483,"last_advert":"2026-05-15T21:05:46.000Z","freq":869.618,"sf":7,"bw":62.5,"cr":5},"200002c5c5bf16411978b32ba1bcfbd859491839522b75ad514ab2c60c492a87":{"name":"NL-MAL-R-2","lat":51.9418,"lon":4.27194,"last_advert":"2026-05-14T13:47:48.000Z","freq":869.618,"sf":7,"bw":62.5,"cr":5},"20041c66d73f8fcdb1625687915d335c3a44916b512345c533d543206e82e031":{"name":"NL-GE Mess Meerkoet","lat":51.8571,"lon":5.76836,"last_advert":"2026-04-25T20:15:44.000Z","freq":869.618,"sf":8,"bw":62.5,"cr":5},"200af82e2311a601da17e352b780f31631892c6a4148c8ec1cabe1d71edd1c4f":{"name":"NL-HVS-NO","lat":52.2329,"lon":5.19013,"last_advert":"2026-05-12T08:56:04.000Z","freq":869.618,"sf":8,"bw":62.5,"cr":8},"201d16db3705dbf0bf38ee5ac10e4409b8dce1d40fcb70380a950b7da6b0fc7e":{"name":"NL-ZWD-Leo","lat":52.1388,"lon":4.52991,"last_advert":"2024-06-05T08:52:36.000Z","freq":869.618,"sf":8,"bw":62.5,"cr":8},"2026b450d3d6e0a22affe9e4aafc76e5693ab16b9f180c7f85a7433a098dd1c8":{"name":"NL-ZH-LID-ZNNVLD-RPT\u2600","lat":52.1716,"lon":4.46737,"last_advert":"2026-05-14T09:45:11.000Z","freq":869.618,"sf":7,"bw":62.5,"cr":5},"202ce602e5139cd33a14182f93e50c68f0ceb84a359e4c55af585d8fc4ce7508":{"name":"NL-ZH-RSW-Repeater","lat":52.1934,"lon":4.67211,"last_advert":"2024-05-21T14:52:33.000Z","freq":869.618,"sf":7,"bw":62.5,"cr":5},"204e358aec1e58fb1861ef5dba9718263efc002d811b5b334588970e267005b7":{"name":"Hoofddorp RPT Omni","lat":52.309,"lon":4.66631,"last_advert":"2026-05-15T18:26:29.000Z","freq":869.618,"sf":8,"bw":62.5,"cr":8},"206e61ce0f0ef550d1985b5f0e72f032847de5fbcd3bd93c2c6f983e621c0dbc":{"name":"DE-NW-AC-52078-Forst","lat":50.7628,"lon":6.13073,"last_advert":"2026-04-17T11:33:48.000Z","freq":869.618,"sf":8,"bw":62.5,"cr":8},"209445bc0374d3dd253b9dd919d293df8b16ae60bb3c3f9273c4ccf12f47b40d":{"name":"NL-HHW-RPT-ZV22","lat":52.672,"lon":4.81431,"last_advert":"2026-05-05T16:06:35.000Z","freq":869.618,"sf":8,"bw":62.5,"cr":8},"209ce7b0d19e741d22d3fee6b3f0b4edf442aae3e7ab6b9aa73fa10efaa63104":{"name":"DE-NW-KW Bockeroth #4","lat":50.7291,"lon":7.24686,"last_advert":"2026-05-14T11:13:39.000Z","freq":869.618,"sf":8,"bw":62.5,"cr":8},"20aaede12782e764abf771c878d65ce200f37798b75bc323d283be4f1a7e17e5":{"name":"WSLEMMER Solar Rptr","lat":52.8376,"lon":5.72367,"last_advert":"2026-05-15T03:47:01.000Z","freq":869.618,"sf":8,"bw":62.5,"cr":8},"20bf60c5e97518369da38c987a44e8ccf2b5d0ab088a4ea0b6290c38e98276ab":{"name":"DE-NW-AC-52076-WH2","lat":50.716,"lon":6.17512,"last_advert":"2026-05-08T21:56:14.000Z","freq":869.618,"sf":8,"bw":62.5,"cr":8},"20c0cbce42c342e6fb2d56216628ac9555fa99c08ac1fd12e5762c3d2c80c85b":{"name":"SvD Relay Station","lat":52.4808,"lon":6.05402,"last_advert":"2024-06-13T17:48:49.000Z","freq":869.618,"sf":8,"bw":62.5,"cr":5},"20d058c9dedcad9c56a520dddaa06f4dafc36b01eb8be09812325517cd8ff826":{"name":"BE-TEN-RRY156","lat":50.8563,"lon":4.53627,"last_advert":"2024-05-15T08:52:31.000Z","freq":869.618,"sf":8,"bw":62.5,"cr":8},"2119bfb2ce1fb0c7d7b6d4d859b0f6b5f9641420cd9b530d03f73d747e7c4679":{"name":"NIPPER","lat":52.3456,"lon":4.62148,"last_advert":"2026-05-15T17:18:13.000Z","freq":869.618,"sf":7,"bw":62.5,"cr":5},"2125d46ff7ed874db7719b751b7d7625c247a184c24f5a0db7733dd1f5d49950":{"name":"NL-UIT-LZ1NOP \ud83c\udf1e","lat":52.2457,"lon":4.82385,"last_advert":"2024-05-15T14:21:56.000Z","freq":869.618,"sf":7,"bw":62.5,"cr":5},"212a594e3edc6fa2e41ace1eb6d373296520c4f8365ecaf6f209ce24875899c7":{"name":"NL-FR-DTU-OBS01","lat":53.2948,"lon":6.04523,"last_advert":"2026-05-16T01:15:09.000Z","freq":869.618,"sf":7,"bw":62.5,"cr":5},